snapshot_utc,pid,process_name,subsystem,state,cpu_pct,mem_kb,mem_pct,priority,threads,open_fds,elapsed_time,last_cpu_time_us,sched_policy,context_switches,description,arquivo_origem,data_processamento,satellite_id,orbit_number,orbit_plane,timestamp_utc,sequence_number,anomalies,checksum,thermal_obc_temp_c,thermal_battery_temp_c,thermal_panel_temp_c,thermal_structure_temp_c,power_bus_voltage_v,power_solar_current_a,power_load_current_a,power_battery_soc_pct,power_in_eclipse,power_power_balance_w,orbital_latitude_deg,orbital_longitude_deg,orbital_altitude_km,orbital_velocity_km_s,orbital_inclination_deg,orbital_raan_deg,attitude_roll_deg,attitude_pitch_deg,attitude_yaw_deg,attitude_angular_rate_x,attitude_angular_rate_y,attitude_angular_rate_z,subsystems_obc_state,subsystems_obc_uptime_s,subsystems_obc_error_count,subsystems_adcs_state,subsystems_adcs_uptime_s,subsystems_adcs_error_count,subsystems_eps_state,subsystems_eps_uptime_s,subsystems_eps_error_count,subsystems_comms_state,subsystems_comms_uptime_s,subsystems_comms_error_count,subsystems_tcs_state,subsystems_tcs_uptime_s,subsystems_tcs_error_count,subsystems_payload_state,subsystems_payload_uptime_s,subsystems_payload_error_count,comms_rssi_dbm,comms_snr_db,comms_ber,comms_packets_sent,comms_packets_lost,comms_last_contact_station,timestamp,temp_obc_c,temp_bateria_c,temp_painel_solar_c,tensao_bus_v,corrente_solar_a,corrente_carga_a,soc_bateria_pct,latitude_deg,longitude_deg,altitude_km,em_eclipse,rssi_dbm,ber,estado_obc,estado_adcs,estado_eps,estado_comms,estado_tcs,estado_payload
2026-06-16T14:32:07Z,1.0,init,OBC,S,0.03,490.0,0.187,0.0,6.0,60.0,184:21:02,46230.0,SCHED_FIFO,34573.0,Init system,processos_embarcados.csv,2026-06-16 20:18:28.005311,,,,,,,,,,,,,,,,,,,,,,,,,,,,,,,,,,,,,,,,,,,,,,,,,,,,,,,,,,,,,,,,,,,,,,,,,
2026-06-16T14:32:07Z,2.0,kthreadd,OBC,S,0.0,124.0,0.047,-20.0,2.0,64.0,662:09:34,13558.0,SCHED_OTHER,75419.0,Kernel thread manager,processos_embarcados.csv,2026-06-16 20:18:28.005311,,,,,,,,,,,,,,,,,,,,,,,,,,,,,,,,,,,,,,,,,,,,,,,,,,,,,,,,,,,,,,,,,,,,,,,,,
2026-06-16T14:32:07Z,101.0,obc_supervisor,OBC,S,1.29,3993.0,1.523,-5.0,5.0,42.0,360:43:40,11803.0,SCHED_FIFO,59506.0,Main OBC supervisor process,processos_embarcados.csv,2026-06-16 20:18:28.005311,,,,,,,,,,,,,,,,,,,,,,,,,,,,,,,,,,,,,,,,,,,,,,,,,,,,,,,,,,,,,,,,,,,,,,,,,
2026-06-16T14:32:07Z,102.0,watchdog,OBC,S,0.03,260.0,0.099,-10.0,8.0,31.0,335:09:02,38599.0,SCHED_FIFO,38243.0,Hardware watchdog,processos_embarcados.csv,2026-06-16 20:18:28.005311,,,,,,,,,,,,,,,,,,,,,,,,,,,,,,,,,,,,,,,,,,,,,,,,,,,,,,,,,,,,,,,,,,,,,,,,,
2026-06-16T14:32:07Z,103.0,fault_manager,OBC,S,0.35,2109.0,0.805,0.0,1.0,47.0,20:59:02,39492.0,SCHED_FIFO,4706.0,Fault detection and recovery,processos_embarcados.csv,2026-06-16 20:18:28.005311,,,,,,,,,,,,,,,,,,,,,,,,,,,,,,,,,,,,,,,,,,,,,,,,,,,,,,,,,,,,,,,,,,,,,,,,,
2026-06-16T14:32:07Z,201.0,adcs_ctrl,ADCS,R,5.47,8400.0,3.204,5.0,3.0,38.0,272:08:42,17231.0,SCHED_OTHER,38602.0,Attitude determination and control,processos_embarcados.csv,2026-06-16 20:18:28.005311,,,,,,,,,,,,,,,,,,,,,,,,,,,,,,,,,,,,,,,,,,,,,,,,,,,,,,,,,,,,,,,,,,,,,,,,,
2026-06-16T14:32:07Z,202.0,star_tracker,ADCS,R,3.17,6020.0,2.296,5.0,7.0,58.0,673:14:18,24901.0,SCHED_OTHER,11608.0,Star tracker image processing,processos_embarcados.csv,2026-06-16 20:18:28.005311,,,,,,,,,,,,,,,,,,,,,,,,,,,,,,,,,,,,,,,,,,,,,,,,,,,,,,,,,,,,,,,,,,,,,,,,,
2026-06-16T14:32:07Z,203.0,magnetorquer_drv,ADCS,S,0.42,987.0,0.377,0.0,1.0,35.0,101:57:28,36344.0,SCHED_OTHER,6062.0,Magnetorquer driver,processos_embarcados.csv,2026-06-16 20:18:28.005311,,,,,,,,,,,,,,,,,,,,,,,,,,,,,,,,,,,,,,,,,,,,,,,,,,,,,,,,,,,,,,,,,,,,,,,,,
2026-06-16T14:32:07Z,204.0,rw_controller,ADCS,R,2.76,2996.0,1.143,5.0,6.0,53.0,418:24:02,20629.0,SCHED_FIFO,40158.0,Reaction wheel controller,processos_embarcados.csv,2026-06-16 20:18:28.005311,,,,,,,,,,,,,,,,,,,,,,,,,,,,,,,,,,,,,,,,,,,,,,,,,,,,,,,,,,,,,,,,,,,,,,,,,
2026-06-16T14:32:07Z,301.0,eps_monitor,EPS,S,0.8,2073.0,0.791,0.0,2.0,3.0,86:06:28,10978.0,SCHED_RR,70358.0,EPS housekeeping monitor,processos_embarcados.csv,2026-06-16 20:18:28.005311,,,,,,,,,,,,,,,,,,,,,,,,,,,,,,,,,,,,,,,,,,,,,,,,,,,,,,,,,,,,,,,,,,,,,,,,,
2026-06-16T14:32:07Z,302.0,mppt_ctrl,EPS,S,0.32,1069.0,0.408,0.0,7.0,46.0,412:42:38,31493.0,SCHED_RR,70027.0,MPPT solar controller,processos_embarcados.csv,2026-06-16 20:18:28.005311,,,,,,,,,,,,,,,,,,,,,,,,,,,,,,,,,,,,,,,,,,,,,,,,,,,,,,,,,,,,,,,,,,,,,,,,,
2026-06-16T14:32:07Z,303.0,battery_manager,EPS,S,0.54,1496.0,0.571,-5.0,8.0,26.0,165:47:00,33620.0,SCHED_RR,64852.0,Battery charge/discharge manager,processos_embarcados.csv,2026-06-16 20:18:28.005311,,,,,,,,,,,,,,,,,,,,,,,,,,,,,,,,,,,,,,,,,,,,,,,,,,,,,,,,,,,,,,,,,,,,,,,,,
2026-06-16T14:32:07Z,401.0,comms_handler,COMMS,S,4.1,8481.0,3.235,5.0,4.0,21.0,345:46:47,34871.0,SCHED_RR,74893.0,Main communications handler,processos_embarcados.csv,2026-06-16 20:18:28.005311,,,,,,,,,,,,,,,,,,,,,,,,,,,,,,,,,,,,,,,,,,,,,,,,,,,,,,,,,,,,,,,,,,,,,,,,,
2026-06-16T14:32:07Z,402.0,ax25_stack,COMMS,S,1.47,2078.0,0.793,5.0,4.0,20.0,435:52:07,38212.0,SCHED_RR,52816.0,AX.25 protocol stack,processos_embarcados.csv,2026-06-16 20:18:28.005311,,,,,,,,,,,,,,,,,,,,,,,,,,,,,,,,,,,,,,,,,,,,,,,,,,,,,,,,,,,,,,,,,,,,,,,,,
2026-06-16T14:32:07Z,403.0,uplink_parser,COMMS,S,0.89,1546.0,0.59,5.0,4.0,29.0,303:21:44,27787.0,SCHED_OTHER,9483.0,Uplink command parser,processos_embarcados.csv,2026-06-16 20:18:28.005311,,,,,,,,,,,,,,,,,,,,,,,,,,,,,,,,,,,,,,,,,,,,,,,,,,,,,,,,,,,,,,,,,,,,,,,,,
2026-06-16T14:32:07Z,404.0,downlink_queue,COMMS,S,1.16,1945.0,0.742,5.0,5.0,30.0,267:59:08,11396.0,SCHED_RR,21605.0,Downlink data queue manager,processos_embarcados.csv,2026-06-16 20:18:28.005311,,,,,,,,,,,,,,,,,,,,,,,,,,,,,,,,,,,,,,,,,,,,,,,,,,,,,,,,,,,,,,,,,,,,,,,,,
2026-06-16T14:32:07Z,501.0,tcs_daemon,TCS,S,0.23,1065.0,0.406,0.0,7.0,59.0,514:42:40,29408.0,SCHED_FIFO,49624.0,Thermal control system daemon,processos_embarcados.csv,2026-06-16 20:18:28.005311,,,,,,,,,,,,,,,,,,,,,,,,,,,,,,,,,,,,,,,,,,,,,,,,,,,,,,,,,,,,,,,,,,,,,,,,,
2026-06-16T14:32:07Z,502.0,heater_ctrl,TCS,S,0.3,492.0,0.188,0.0,6.0,52.0,706:26:43,22323.0,SCHED_OTHER,72017.0,Heater controller,processos_embarcados.csv,2026-06-16 20:18:28.005311,,,,,,,,,,,,,,,,,,,,,,,,,,,,,,,,,,,,,,,,,,,,,,,,,,,,,,,,,,,,,,,,,,,,,,,,,
2026-06-16T14:32:07Z,601.0,payload_main,PAYLOAD,R,8.74,16401.0,6.256,10.0,7.0,47.0,645:55:20,39516.0,SCHED_RR,70909.0,Main payload controller,processos_embarcados.csv,2026-06-16 20:18:28.005311,,,,,,,,,,,,,,,,,,,,,,,,,,,,,,,,,,,,,,,,,,,,,,,,,,,,,,,,,,,,,,,,,,,,,,,,,
2026-06-16T14:32:07Z,602.0,img_capture,PAYLOAD,R,6.37,33468.0,12.767,10.0,1.0,3.0,187:54:28,21463.0,SCHED_RR,24471.0,Image capture process,processos_embarcados.csv,2026-06-16 20:18:28.005311,,,,,,,,,,,,,,,,,,,,,,,,,,,,,,,,,,,,,,,,,,,,,,,,,,,,,,,,,,,,,,,,,,,,,,,,,
2026-06-16T14:32:07Z,603.0,img_compress,PAYLOAD,R,9.11,24183.0,9.225,10.0,4.0,35.0,353:29:09,39944.0,SCHED_OTHER,88303.0,Image compression (CCSDS 122),processos_embarcados.csv,2026-06-16 20:18:28.005311,,,,,,,,,,,,,,,,,,,,,,,,,,,,,,,,,,,,,,,,,,,,,,,,,,,,,,,,,,,,,,,,,,,,,,,,,
2026-06-16T14:32:07Z,604.0,data_store,PAYLOAD,S,2.2,8381.0,3.197,5.0,6.0,41.0,120:19:25,39599.0,SCHED_FIFO,41321.0,On-board mass memory manager,processos_embarcados.csv,2026-06-16 20:18:28.005311,,,,,,,,,,,,,,,,,,,,,,,,,,,,,,,,,,,,,,,,,,,,,,,,,,,,,,,,,,,,,,,,,,,,,,,,,
2026-06-16T14:32:07Z,701.0,logger,OBC,S,0.42,1997.0,0.762,-5.0,7.0,59.0,589:35:24,22588.0,SCHED_FIFO,58671.0,System event logger,processos_embarcados.csv,2026-06-16 20:18:28.005311,,,,,,,,,,,,,,,,,,,,,,,,,,,,,,,,,,,,,,,,,,,,,,,,,,,,,,,,,,,,,,,,,,,,,,,,,
2026-06-16T14:32:07Z,702.0,telemetry_gen,OBC,S,1.71,3993.0,1.523,0.0,7.0,32.0,325:24:43,34227.0,SCHED_OTHER,51748.0,Telemetry frame generator,processos_embarcados.csv,2026-06-16 20:18:28.005311,,,,,,,,,,,,,,,,,,,,,,,,,,,,,,,,,,,,,,,,,,,,,,,,,,,,,,,,,,,,,,,,,,,,,,,,,
2026-06-16T14:32:07Z,703.0,time_sync,OBC,S,0.09,518.0,0.198,0.0,5.0,60.0,02:54:59,30578.0,SCHED_OTHER,74162.0,On-board time synchronisation,processos_embarcados.csv,2026-06-16 20:18:28.005311,,,,,,,,,,,,,,,,,,,,,,,,,,,,,,,,,,,,,,,,,,,,,,,,,,,,,,,,,,,,,,,,,,,,,,,,,
2026-06-16T14:32:07Z,704.0,health_check,OBC,S,0.33,1011.0,0.386,-5.0,1.0,4.0,216:46:14,45755.0,SCHED_RR,71706.0,Subsystem health check daemon,processos_embarcados.csv,2026-06-16 20:18:28.005311,,,,,,,,,,,,,,,,,,,,,,,,,,,,,,,,,,,,,,,,,,,,,,,,,,,,,,,,,,,,,,,,,,,,,,,,,
2026-06-16T14:32:07Z,705.0,cmd_executor,OBC,S,0.42,2028.0,0.774,0.0,3.0,64.0,628:12:23,17909.0,SCHED_RR,79241.0,Telecommand executor,processos_embarcados.csv,2026-06-16 20:18:28.005311,,,,,,,,,,,,,,,,,,,,,,,,,,,,,,,,,,,,,,,,,,,,,,,,,,,,,,,,,,,,,,,,,,,,,,,,,
2026-06-16T14:32:07Z,801.0,crypto_daemon,COMMS,S,0.73,2953.0,1.126,-5.0,3.0,29.0,574:52:17,24496.0,SCHED_RR,33297.0,Crypto/authentication daemon,processos_embarcados.csv,2026-06-16 20:18:28.005311,,,,,,,,,,,,,,,,,,,,,,,,,,,,,,,,,,,,,,,,,,,,,,,,,,,,,,,,,,,,,,,,,,,,,,,,,
,,,,,,,,,,,,,,,,telemetria_massa.json,2026-06-16 20:18:28.438741,SAT-BR-01,3821.0,A,2026-06-01T00:00:00Z,1.0,[],0x87e2da56,27.883,23.079,92.05,25.67,27.843,4.535,2.517,78.234,True,58.81,-10.477,-45.641,549.888,7.5692,97.6,165.978,0.052,-0.4455,-0.325,0.00845,-0.00881,-0.00039,NOMINAL,63228.0,0.0,NOMINAL,1001209.0,1.0,NOMINAL,2276296.0,1.0,NOMINAL,1386801.0,0.0,NOMINAL,729490.0,3.0,NOMINAL,346785.0,5.0,-83.732,21.79,7.83967e-06,131.0,0.0,Natal-GS,,,,,,,,,,,,,,,,,,,,
,,,,,,,,,,,,,,,,telemetria_massa.json,2026-06-16 20:18:28.438741,SAT-BR-01,3821.0,B,2026-06-01T00:00:30Z,2.0,[],0x57db3d2d,26.704,22.151,-16.6,13.0,27.678,4.761,2.399,77.791,False,65.92,-10.594,-46.397,549.696,7.6213,97.6,165.978,0.0849,-0.3877,0.2524,0.0041,0.00145,0.00681,NOMINAL,1322767.0,3.0,NOMINAL,1764616.0,5.0,NOMINAL,975681.0,1.0,NOMINAL,236788.0,2.0,NOMINAL,910122.0,0.0,NOMINAL,2296480.0,0.0,-84.151,16.51,3.60385e-06,141.0,2.0,Alcantara-GS,,,,,,,,,,,,,,,,,,,,
,,,,,,,,,,,,,,,,telemetria_massa.json,2026-06-16 20:18:28.438741,SAT-BR-01,3821.0,B,2026-06-01T00:01:00Z,3.0,[],0xb4e96157,25.535,22.101,103.14,26.06,27.573,4.839,1.634,77.467,False,3.41,-11.689,-45.516,549.489,7.5776,97.6,165.978,-0.437,0.0694,0.3525,-0.00497,-0.0052,0.0087,NOMINAL,896496.0,0.0,NOMINAL,2579105.0,1.0,NOMINAL,1598145.0,5.0,NOMINAL,1410388.0,3.0,NOMINAL,1430328.0,5.0,NOMINAL,655698.0,1.0,-85.58,8.17,5.31431e-06,105.0,1.0,Natal-GS,,,,,,,,,,,,,,,,,,,,
,,,,,,,,,,,,,,,,telemetria_massa.json,2026-06-16 20:18:28.438741,SAT-BR-01,3821.0,C,2026-06-01T00:01:30Z,4.0,[],0xf561d30,24.085,23.083,92.6,14.59,27.519,5.045,3.876,77.335,True,3.06,-10.649,-47.361,549.296,7.6456,97.6,165.978,0.243,-0.1038,-0.424,-0.00622,-0.00261,0.00876,NOMINAL,1069595.0,3.0,NOMINAL,701462.0,0.0,NOMINAL,1113004.0,0.0,NOMINAL,2472998.0,4.0,NOMINAL,1151520.0,0.0,NOMINAL,1886235.0,3.0,-87.2,21.4,8.01593e-06,176.0,3.0,Natal-GS,,,,,,,,,,,,,,,,,,,,
,,,,,,,,,,,,,,,,telemetria_massa.json,2026-06-16 20:18:28.438741,SAT-BR-01,3821.0,A,2026-06-01T00:02:00Z,5.0,[],0x3a5c26c1,23.967,23.277,78.56,35.63,27.607,5.287,3.265,76.685,True,12.63,-10.219,-48.976,549.189,7.6226,97.6,165.978,-0.0696,-0.3249,-0.1319,-0.00557,0.00522,0.007,NOMINAL,1344096.0,1.0,NOMINAL,2073300.0,2.0,NOMINAL,2291405.0,3.0,NOMINAL,775649.0,5.0,NOMINAL,1071115.0,0.0,NOMINAL,138018.0,1.0,-86.956,13.32,1.97403e-06,191.0,2.0,Natal-GS,,,,,,,,,,,,,,,,,,,,
,,,,,,,,,,,,,,,,telemetria_massa.json,2026-06-16 20:18:28.438741,SAT-BR-01,3821.0,B,2026-06-01T00:02:30Z,6.0,[],0x2fd9577c,23.268,23.847,103.44,18.02,27.726,5.486,5.405,76.362,False,56.06,-10.871,-47.436,548.859,7.6481,97.6,165.978,-0.0117,0.2033,0.2225,0.0074,0.00831,-0.00307,NOMINAL,159543.0,5.0,NOMINAL,1819567.0,2.0,NOMINAL,463673.0,5.0,NOMINAL,2455395.0,1.0,NOMINAL,2141322.0,2.0,NOMINAL,1625945.0,5.0,-88.235,11.95,8.91498e-06,81.0,2.0,CuiabaSat-GS,,,,,,,,,,,,,,,,,,,,
,,,,,,,,,,,,,,,,telemetria_massa.json,2026-06-16 20:18:28.438741,SAT-BR-01,3821.0,C,2026-06-01T00:03:00Z,7.0,[],0xecd8e335,23.196,22.972,89.16,28.53,27.919,5.685,4.934,76.471,True,78.21,-10.895,-45.959,549.161,7.6329,97.6,165.978,0.3358,0.3008,0.2408,-0.00069,0.00581,0.00626,NOMINAL,969050.0,0.0,NOMINAL,919047.0,2.0,SAFE_MODE,1142742.0,4.0,NOMINAL,1516939.0,4.0,NOMINAL,2145450.0,1.0,NOMINAL,2166353.0,3.0,-88.121,12.98,2.20568e-06,182.0,3.0,Alcantara-GS,,,,,,,,,,,,,,,,,,,,
,,,,,,,,,,,,,,,,telemetria_massa.json,2026-06-16 20:18:28.438741,SAT-BR-01,3821.0,A,2026-06-01T00:03:30Z,8.0,[],0x64e6d311,23.289,23.015,46.29,33.73,28.105,5.906,4.685,76.757,True,113.62,-10.274,-44.542,548.684,7.5616,97.6,165.978,-0.2003,-0.0084,-0.1263,0.00142,0.00075,-0.00126,NOMINAL,1746147.0,1.0,NOMINAL,2122124.0,2.0,NOMINAL,982630.0,0.0,NOMINAL,894539.0,2.0,NOMINAL,2008088.0,2.0,NOMINAL,88305.0,4.0,-87.589,10.51,2.29274e-06,47.0,4.0,Natal-GS,,,,,,,,,,,,,,,,,,,,
,,,,,,,,,,,,,,,,telemetria_massa.json,2026-06-16 20:18:28.438741,SAT-BR-01,3821.0,B,2026-06-01T00:04:00Z,9.0,[],0x4ae170bc,22.845,23.108,65.78,26.06,28.029,6.144,4.592,76.642,False,41.45,-9.186,-46.021,548.671,7.6318,97.6,165.978,0.4095,-0.378,-0.1192,-0.00303,-0.00412,0.00068,NOMINAL,2180058.0,3.0,NOMINAL,2277484.0,3.0,NOMINAL,220506.0,1.0,NOMINAL,836371.0,4.0,NOMINAL,649741.0,1.0,NOMINAL,253952.0,2.0,-87.365,18.36,2.39142e-06,45.0,3.0,Natal-GS,,,,,,,,,,,,,,,,,,,,
,,,,,,,,,,,,,,,,telemetria_massa.json,2026-06-16 20:18:28.438741,SAT-BR-01,3821.0,C,2026-06-01T00:04:30Z,10.0,[],0xde023d2c,21.7,22.465,-4.72,21.0,28.167,6.387,5.208,76.07,True,56.4,-8.218,-45.08,548.833,7.5748,97.6,165.978,-0.4709,-0.4006,-0.1457,-0.00441,0.00073,-0.00952,NOMINAL,389699.0,2.0,NOMINAL,2165119.0,4.0,NOMINAL,1987021.0,1.0,NOMINAL,1118086.0,4.0,NOMINAL,2459083.0,4.0,NOMINAL,1174721.0,3.0,-85.882,24.87,5.34195e-06,174.0,0.0,Natal-GS,,,,,,,,,,,,,,,,,,,,
,,,,,,,,,,,,,,,,telemetria_massa.json,2026-06-16 20:18:28.438741,SAT-BR-01,3821.0,A,2026-06-01T00:05:00Z,11.0,[],0x6a0134f7,21.851,21.568,71.12,39.09,28.071,6.151,1.88,76.204,True,101.29,-7.635,-45.116,548.976,7.5689,97.6,165.978,0.2238,-0.0279,-0.3312,0.00535,-0.00356,0.0051,NOMINAL,801043.0,2.0,NOMINAL,501904.0,2.0,NOMINAL,1482680.0,3.0,NOMINAL,464525.0,4.0,NOMINAL,1887827.0,2.0,DEGRADED,566297.0,1.0,-85.831,20.78,6.45586e-06,58.0,4.0,CuiabaSat-GS,,,,,,,,,,,,,,,,,,,,
,,,,,,,,,,,,,,,,telemetria_massa.json,2026-06-16 20:18:28.438741,SAT-BR-01,3821.0,C,2026-06-01T00:05:30Z,12.0,[],0xfccd5bf9,21.414,22.547,6.26,27.8,28.01,6.273,3.55,76.562,False,113.47,-6.656,-45.924,548.79,7.6479,97.6,165.978,-0.2219,0.1577,-0.2248,-0.00177,0.00713,0.00163,SAFE_MODE,629820.0,2.0,NOMINAL,2046156.0,3.0,NOMINAL,951767.0,3.0,NOMINAL,1742633.0,2.0,NOMINAL,1567697.0,1.0,NOMINAL,470783.0,1.0,-85.086,9.67,3.942e-06,23.0,3.0,Alcantara-GS,,,,,,,,,,,,,,,,,,,,
,,,,,,,,,,,,,,,,telemetria_massa.json,2026-06-16 20:18:28.438741,SAT-BR-01,3821.0,C,2026-06-01T00:06:00Z,13.0,[],0xb02a4c30,20.55,22.568,99.26,21.78,28.195,6.082,2.097,75.905,True,109.21,-6.182,-44.886,548.49,7.5859,97.6,165.978,-0.1802,0.4974,-0.2186,-0.00472,-0.00417,-0.006,NOMINAL,2057309.0,1.0,NOMINAL,602842.0,0.0,NOMINAL,67548.0,4.0,NOMINAL,1249423.0,0.0,NOMINAL,2128903.0,4.0,NOMINAL,1171648.0,0.0,-85.246,18.5,7.64748e-06,185.0,4.0,Alcantara-GS,,,,,,,,,,,,,,,,,,,,
,,,,,,,,,,,,,,,,telemetria_massa.json,2026-06-16 20:18:28.438741,SAT-BR-01,3821.0,A,2026-06-01T00:06:30Z,14.0,[],0x112708a5,20.241,22.824,20.94,28.63,28.028,5.895,4.735,76.274,False,79.51,-7.244,-44.122,548.664,7.63,97.6,165.978,0.2419,-0.2089,0.205,-0.00166,0.00662,-0.00091,NOMINAL,2204456.0,4.0,SAFE_MODE,662659.0,3.0,NOMINAL,258002.0,0.0,NOMINAL,1808296.0,0.0,DEGRADED,386932.0,3.0,NOMINAL,1842446.0,1.0,-86.888,11.17,1.42504e-06,189.0,5.0,Natal-GS,,,,,,,,,,,,,,,,,,,,
,,,,,,,,,,,,,,,,telemetria_massa.json,2026-06-16 20:18:28.438741,SAT-BR-01,3821.0,B,2026-06-01T00:07:00Z,15.0,[],0xa095e132,20.034,23.747,17.83,36.76,28.228,6.082,5.397,75.844,False,40.61,-6.786,-42.905,549.023,7.6089,97.6,165.978,0.4473,0.0982,0.196,-0.00725,-0.00202,0.00584,NOMINAL,1026293.0,4.0,NOMINAL,209733.0,3.0,NOMINAL,161869.0,0.0,NOMINAL,2472574.0,4.0,NOMINAL,871553.0,5.0,NOMINAL,2330184.0,4.0,-88.581,22.88,4.73941e-06,135.0,1.0,Natal-GS,,,,,,,,,,,,,,,,,,,,
,,,,,,,,,,,,,,,,telemetria_massa.json,2026-06-16 20:18:28.438741,SAT-BR-01,3821.0,A,2026-06-01T00:07:30Z,16.0,[],0xa5bf5b50,19.535,23.126,40.51,23.61,28.242,5.854,5.091,75.58,True,79.58,-6.387,-44.888,549.095,7.5883,97.6,165.978,0.4676,0.0736,-0.0227,-0.0056,0.0048,-0.00766,NOMINAL,1481701.0,5.0,SAFE_MODE,1938865.0,1.0,NOMINAL,1258699.0,3.0,NOMINAL,1439395.0,0.0,NOMINAL,1233797.0,3.0,SAFE_MODE,1094892.0,3.0,-88.118,20.88,7.63027e-06,161.0,1.0,Natal-GS,,,,,,,,,,,,,,,,,,,,
,,,,,,,,,,,,,,,,telemetria_massa.json,2026-06-16 20:18:28.438741,SAT-BR-01,3821.0,B,2026-06-01T00:08:00Z,17.0,[],0x82a74051,19.359,23.252,89.71,35.93,28.107,5.88,5.131,75.276,False,54.58,-6.48,-44.301,549.235,7.5541,97.6,165.978,-0.0551,0.3874,-0.3673,-0.00213,0.00981,-0.00233,NOMINAL,2054907.0,3.0,NOMINAL,967500.0,4.0,NOMINAL,1617673.0,1.0,NOMINAL,537229.0,3.0,NOMINAL,1690418.0,0.0,NOMINAL,1899295.0,2.0,-86.743,14.25,2.56908e-06,176.0,4.0,CuiabaSat-GS,,,,,,,,,,,,,,,,,,,,
,,,,,,,,,,,,,,,,telemetria_massa.json,2026-06-16 20:18:28.438741,SAT-BR-01,3821.0,B,2026-06-01T00:08:30Z,18.0,[],0x634fc500,18.968,22.866,14.43,14.48,28.034,5.72,3.676,75.847,True,27.41,-5.519,-45.577,549.078,7.6393,97.6,165.978,-0.0309,-0.488,-0.0027,0.00705,0.0084,0.00313,NOMINAL,1686071.0,0.0,NOMINAL,730546.0,2.0,NOMINAL,287827.0,3.0,NOMINAL,1094594.0,0.0,NOMINAL,2316382.0,5.0,NOMINAL,549889.0,4.0,-86.616,8.44,1.70953e-06,55.0,5.0,CuiabaSat-GS,,,,,,,,,,,,,,,,,,,,
,,,,,,,,,,,,,,,,telemetria_massa.json,2026-06-16 20:18:28.438741,SAT-BR-01,3821.0,B,2026-06-01T00:09:00Z,19.0,[],0x74fefd13,17.615,22.956,67.85,20.78,27.875,5.779,3.232,75.657,False,98.85,-6.641,-44.721,549.192,7.5903,97.6,165.978,0.4735,0.3144,-0.2013,-0.00563,0.00625,-0.00598,DEGRADED,736376.0,1.0,NOMINAL,1111771.0,0.0,SAFE_MODE,2423939.0,5.0,NOMINAL,785352.0,3.0,SAFE_MODE,325830.0,3.0,NOMINAL,1068859.0,4.0,-87.387,17.48,4.47841e-06,85.0,1.0,CuiabaSat-GS,,,,,,,,,,,,,,,,,,,,
,,,,,,,,,,,,,,,,telemetria_massa.json,2026-06-16 20:18:28.438741,SAT-BR-01,3821.0,A,2026-06-01T00:09:30Z,20.0,[],0x3838638,17.263,22.379,-23.27,28.61,27.947,5.693,3.233,75.101,False,73.76,-6.316,-45.362,548.699,7.5827,97.6,165.978,-0.3583,0.4505,-0.0407,0.00188,-0.00498,-0.00057,NOMINAL,2534164.0,0.0,NOMINAL,1718779.0,4.0,NOMINAL,2055700.0,1.0,NOMINAL,193017.0,0.0,NOMINAL,1878627.0,4.0,NOMINAL,1970775.0,3.0,-86.709,14.51,6.68583e-06,23.0,1.0,Alcantara-GS,,,,,,,,,,,,,,,,,,,,
,,,,,,,,,,,,,,,,telemetria_massa.json,2026-06-16 20:18:28.438741,SAT-BR-01,3821.0,B,2026-06-01T00:10:00Z,21.0,[],0x51caa6d6,18.547,21.976,78.22,16.52,28.077,5.452,2.167,74.821,True,75.07,-6.937,-44.662,548.963,7.5641,97.6,165.978,0.1024,-0.3986,0.4923,0.00944,0.00309,-0.00197,NOMINAL,620208.0,5.0,NOMINAL,710325.0,2.0,NOMINAL,110468.0,4.0,NOMINAL,444223.0,0.0,NOMINAL,2387353.0,3.0,NOMINAL,1094645.0,2.0,-86.935,10.71,6.94571e-06,34.0,3.0,CuiabaSat-GS,,,,,,,,,,,,,,,,,,,,
,,,,,,,,,,,,,,,,telemetria_massa.json,2026-06-16 20:18:28.438741,SAT-BR-01,3821.0,C,2026-06-01T00:10:30Z,22.0,[],0x90eeeec4,17.629,21.103,101.6,10.78,28.144,5.277,3.898,74.927,False,60.41,-6.455,-44.38,549.383,7.6011,97.6,165.978,0.1159,-0.0179,0.1764,-0.00018,-0.00881,0.00459,NOMINAL,416616.0,2.0,NOMINAL,42021.0,3.0,NOMINAL,1255773.0,1.0,NOMINAL,2139931.0,4.0,NOMINAL,2216884.0,4.0,SAFE_MODE,1216501.0,3.0,-88.752,8.66,6.58979e-06,15.0,3.0,Natal-GS,,,,,,,,,,,,,,,,,,,,
,,,,,,,,,,,,,,,,telemetria_massa.json,2026-06-16 20:18:28.438741,SAT-BR-01,3821.0,B,2026-06-01T00:11:00Z,23.0,[],0xc2ba3933,16.697,20.331,12.46,11.77,28.018,5.44,1.885,74.768,True,36.47,-6.639,-42.644,549.853,7.5754,97.6,165.978,0.0404,0.1144,0.3766,-0.0023,0.00065,0.00056,NOMINAL,1317494.0,4.0,NOMINAL,794331.0,4.0,NOMINAL,596593.0,5.0,NOMINAL,2029814.0,4.0,NOMINAL,1410734.0,1.0,NOMINAL,2095354.0,2.0,-86.853,9.29,6.92648e-06,187.0,4.0,CuiabaSat-GS,,,,,,,,,,,,,,,,,,,,
,,,,,,,,,,,,,,,,telemetria_massa.json,2026-06-16 20:18:28.438741,SAT-BR-01,3821.0,C,2026-06-01T00:11:30Z,24.0,[],0x3aa19b2d,15.727,20.157,103.28,16.9,27.999,5.291,4.476,75.42,False,20.84,-6.224,-42.813,549.515,7.5994,97.6,165.978,-0.268,0.0138,0.3672,-0.00494,-0.00819,0.00335,NOMINAL,692004.0,5.0,NOMINAL,2560332.0,2.0,NOMINAL,516610.0,0.0,NOMINAL,559112.0,1.0,NOMINAL,58869.0,0.0,NOMINAL,1622105.0,2.0,-88.802,17.29,1.7415e-06,187.0,1.0,Alcantara-GS,,,,,,,,,,,,,,,,,,,,
,,,,,,,,,,,,,,,,telemetria_massa.json,2026-06-16 20:18:28.438741,SAT-BR-01,3821.0,B,2026-06-01T00:12:00Z,25.0,[],0xfc543e41,15.055,20.998,31.31,18.48,27.8,5.132,3.375,75.326,False,46.89,-7.17,-41.091,549.656,7.5669,97.6,165.978,-0.1833,0.2083,-0.2497,-0.00333,-0.0016,-0.00087,NOMINAL,361527.0,1.0,NOMINAL,948453.0,1.0,NOMINAL,2437714.0,3.0,DEGRADED,645264.0,2.0,NOMINAL,1671458.0,0.0,NOMINAL,1148724.0,0.0,-87.53,11.88,6.3669e-06,62.0,5.0,Alcantara-GS,,,,,,,,,,,,,,,,,,,,
,,,,,,,,,,,,,,,,telemetria_massa.json,2026-06-16 20:18:28.438741,SAT-BR-01,3821.0,B,2026-06-01T00:12:30Z,26.0,[],0x83a6b448,15.377,20.291,-22.19,26.95,27.757,5.02,5.121,74.856,False,68.54,-8.135,-42.301,549.592,7.5727,97.6,165.978,0.2735,-0.1161,0.2184,-0.00989,0.00708,0.00336,NOMINAL,1341873.0,0.0,NOMINAL,2427172.0,1.0,NOMINAL,2572498.0,4.0,NOMINAL,188013.0,4.0,NOMINAL,606443.0,0.0,NOMINAL,867709.0,3.0,-86.562,8.52,6.67655e-06,189.0,0.0,Alcantara-GS,,,,,,,,,,,,,,,,,,,,
,,,,,,,,,,,,,,,,telemetria_massa.json,2026-06-16 20:18:28.438741,SAT-BR-01,3821.0,A,2026-06-01T00:13:00Z,27.0,[],0xbee78217,15.433,21.018,-25.12,14.19,27.724,4.85,3.33,75.139,False,55.73,-7.742,-42.304,549.323,7.5638,97.6,165.978,-0.1308,-0.3832,-0.0584,0.00368,-0.00708,0.00463,NOMINAL,2276546.0,3.0,NOMINAL,1015068.0,0.0,NOMINAL,166122.0,5.0,NOMINAL,1983260.0,4.0,NOMINAL,822957.0,5.0,NOMINAL,2243087.0,3.0,-87.54,21.86,7.78194e-06,102.0,5.0,CuiabaSat-GS,,,,,,,,,,,,,,,,,,,,
,,,,,,,,,,,,,,,,telemetria_massa.json,2026-06-16 20:18:28.438741,SAT-BR-01,3821.0,B,2026-06-01T00:13:30Z,28.0,[],0xab9c0a80,15.0,20.347,54.86,36.81,27.848,4.582,5.22,75.002,False,68.24,-8.912,-40.471,548.975,7.5625,97.6,165.978,-0.4644,0.3232,0.2597,-0.00576,-0.00205,-0.0078,NOMINAL,1638449.0,3.0,NOMINAL,1415309.0,4.0,NOMINAL,438530.0,1.0,NOMINAL,304757.0,0.0,NOMINAL,2548372.0,1.0,NOMINAL,2179637.0,0.0,-88.609,8.15,1.68634e-06,64.0,4.0,Natal-GS,,,,,,,,,,,,,,,,,,,,
,,,,,,,,,,,,,,,,telemetria_massa.json,2026-06-16 20:18:28.438741,SAT-BR-01,3821.0,B,2026-06-01T00:14:00Z,29.0,[],0xc9d39a27,15.0,20.674,66.45,20.73,28.022,4.428,5.36,75.156,True,25.87,-8.943,-41.84,549.428,7.5823,97.6,165.978,0.0407,0.3856,0.1006,0.00712,0.00901,0.00888,NOMINAL,1623145.0,4.0,NOMINAL,1283146.0,1.0,DEGRADED,2301227.0,3.0,NOMINAL,2214983.0,4.0,SAFE_MODE,2426472.0,4.0,NOMINAL,2284717.0,2.0,-90.603,21.05,8.44876e-06,111.0,0.0,Alcantara-GS,,,,,,,,,,,,,,,,,,,,
,,,,,,,,,,,,,,,,telemetria_massa.json,2026-06-16 20:18:28.438741,SAT-BR-01,3821.0,B,2026-06-01T00:14:30Z,30.0,[],0xc73ea2d4,15.0,20.717,53.46,11.45,28.195,4.664,4.218,74.768,True,-20.86,-8.659,-42.193,549.42,7.6026,97.6,165.978,0.1175,-0.3127,-0.4991,0.00543,-0.0007,-0.00612,NOMINAL,2109583.0,0.0,NOMINAL,963976.0,0.0,NOMINAL,2432313.0,1.0,NOMINAL,850771.0,3.0,NOMINAL,1882475.0,0.0,NOMINAL,591774.0,4.0,-90.094,16.38,1.36797e-06,69.0,4.0,CuiabaSat-GS,,,,,,,,,,,,,,,,,,,,
,,,,,,,,,,,,,,,,telemetria_massa.json,2026-06-16 20:18:28.438741,SAT-BR-01,3821.0,A,2026-06-01T00:15:00Z,31.0,[],0x12bc3f83,15.0,21.016,80.24,14.3,28.308,4.845,2.381,74.507,True,15.12,-7.935,-42.606,549.006,7.602,97.6,165.978,0.0606,0.2816,0.2705,0.00561,0.0038,-0.00392,NOMINAL,1771828.0,1.0,NOMINAL,1154555.0,1.0,NOMINAL,407627.0,1.0,NOMINAL,370408.0,5.0,NOMINAL,1262831.0,5.0,NOMINAL,1300394.0,5.0,-91.972,23.65,7.5262e-06,13.0,1.0,Natal-GS,,,,,,,,,,,,,,,,,,,,
,,,,,,,,,,,,,,,,telemetria_massa.json,2026-06-16 20:18:28.438741,SAT-BR-01,3821.0,A,2026-06-01T00:15:30Z,32.0,[],0x4f750a96,15.0,19.988,93.21,24.84,28.489,4.904,2.487,74.661,False,19.68,-7.345,-41.322,549.206,7.6346,97.6,165.978,-0.0103,-0.4852,0.1198,0.00261,0.0088,0.00411,NOMINAL,43657.0,3.0,NOMINAL,2069536.0,1.0,NOMINAL,1290403.0,0.0,NOMINAL,746670.0,5.0,NOMINAL,37913.0,2.0,NOMINAL,85985.0,0.0,-89.98,10.69,4.45017e-06,97.0,3.0,Natal-GS,,,,,,,,,,,,,,,,,,,,
,,,,,,,,,,,,,,,,telemetria_massa.json,2026-06-16 20:18:28.438741,SAT-BR-01,3821.0,A,2026-06-01T00:16:00Z,33.0,[],0x4de7bb27,16.185,20.518,-18.13,28.0,28.632,4.916,2.505,73.873,True,79.54,-7.62,-39.718,549.196,7.6477,97.6,165.978,0.0361,-0.0752,-0.0428,-0.0031,-0.00413,0.00791,NOMINAL,844081.0,3.0,NOMINAL,865259.0,1.0,NOMINAL,2384916.0,2.0,NOMINAL,396809.0,3.0,NOMINAL,1487584.0,1.0,NOMINAL,2442493.0,4.0,-91.322,19.22,1.779e-08,144.0,3.0,Alcantara-GS,,,,,,,,,,,,,,,,,,,,
,,,,,,,,,,,,,,,,telemetria_massa.json,2026-06-16 20:18:28.438741,SAT-BR-01,3821.0,A,2026-06-01T00:16:30Z,34.0,[],0x282ff4d8,16.411,20.63,79.76,31.16,28.542,5.059,3.405,73.963,False,-0.03,-8.176,-39.44,549.163,7.5629,97.6,165.978,0.2992,-0.0384,0.2804,-0.00822,0.00938,0.00566,NOMINAL,661402.0,2.0,NOMINAL,2131411.0,4.0,NOMINAL,997215.0,1.0,NOMINAL,832013.0,4.0,NOMINAL,2396052.0,3.0,NOMINAL,1878220.0,5.0,-92.944,21.96,2.13046e-06,48.0,1.0,CuiabaSat-GS,,,,,,,,,,,,,,,,,,,,
,,,,,,,,,,,,,,,,telemetria_massa.json,2026-06-16 20:18:28.438741,SAT-BR-01,3821.0,C,2026-06-01T00:17:00Z,35.0,[],0xee46e7e0,15.627,21.201,-6.8,12.6,28.373,5.224,2.422,73.719,False,105.06,-8.221,-41.016,549.617,7.5893,97.6,165.978,0.017,0.1852,0.1457,-0.00192,-0.00285,0.00177,NOMINAL,1878225.0,2.0,NOMINAL,113203.0,2.0,NOMINAL,2590557.0,2.0,NOMINAL,704286.0,3.0,NOMINAL,1801393.0,5.0,DEGRADED,397484.0,1.0,-94.49,12.7,2.22528e-06,143.0,5.0,Alcantara-GS,,,,,,,,,,,,,,,,,,,,
,,,,,,,,,,,,,,,,telemetria_massa.json,2026-06-16 20:18:28.438741,SAT-BR-01,3821.0,C,2026-06-01T00:17:30Z,36.0,[],0x35b3863e,15.724,20.773,31.94,24.26,28.543,5.297,1.69,74.18,False,101.72,-7.398,-40.018,549.239,7.5647,97.6,165.978,-0.3914,-0.3535,0.1773,-0.0037,-0.0069,-0.00859,NOMINAL,229867.0,2.0,NOMINAL,1245269.0,1.0,NOMINAL,113538.0,3.0,NOMINAL,1281680.0,3.0,NOMINAL,1623044.0,5.0,NOMINAL,1497095.0,5.0,-96.175,11.7,8.40399e-06,167.0,5.0,CuiabaSat-GS,,,,,,,,,,,,,,,,,,,,
,,,,,,,,,,,,,,,,telemetria_massa.json,2026-06-16 20:18:28.438741,SAT-BR-01,3821.0,C,2026-06-01T00:18:00Z,37.0,[],0x95343ce2,15.05,19.968,79.5,24.79,28.695,5.387,4.411,73.838,False,90.25,-7.427,-41.782,548.789,7.6272,97.6,165.978,-0.3238,-0.2431,-0.0173,-0.00376,0.00384,-0.00648,NOMINAL,2061785.0,5.0,NOMINAL,444515.0,1.0,NOMINAL,606584.0,3.0,NOMINAL,668835.0,2.0,DEGRADED,2569180.0,4.0,NOMINAL,1880282.0,4.0,-96.983,17.64,8.4387e-06,178.0,4.0,Alcantara-GS,,,,,,,,,,,,,,,,,,,,
,,,,,,,,,,,,,,,,telemetria_massa.json,2026-06-16 20:18:28.438741,SAT-BR-01,3821.0,A,2026-06-01T00:18:30Z,38.0,[],0xc03df516,16.198,19.432,-5.15,23.74,28.848,5.344,3.107,73.617,True,109.66,-7.934,-41.653,549.227,7.6413,97.6,165.978,0.059,-0.0278,0.4845,-0.00714,0.00582,0.00874,NOMINAL,1116207.0,4.0,NOMINAL,126667.0,3.0,NOMINAL,1157221.0,3.0,NOMINAL,1623947.0,2.0,NOMINAL,2582300.0,1.0,NOMINAL,1758920.0,2.0,-96.938,9.18,1.8244e-06,96.0,2.0,Alcantara-GS,,,,,,,,,,,,,,,,,,,,
,,,,,,,,,,,,,,,,telemetria_massa.json,2026-06-16 20:18:28.438741,SAT-BR-01,3821.0,C,2026-06-01T00:19:00Z,39.0,[],0x8d23398c,16.796,20.265,22.55,14.16,28.812,5.441,1.566,74.063,False,37.09,-8.704,-40.981,549.31,7.5693,97.6,165.978,-0.3745,0.4923,-0.1,0.00537,0.00347,-0.00856,NOMINAL,2265151.0,4.0,NOMINAL,1623696.0,5.0,NOMINAL,845844.0,2.0,NOMINAL,947322.0,2.0,NOMINAL,682338.0,4.0,NOMINAL,1306174.0,2.0,-97.694,17.26,5.65925e-06,116.0,1.0,Natal-GS,,,,,,,,,,,,,,,,,,,,
,,,,,,,,,,,,,,,,telemetria_massa.json,2026-06-16 20:18:28.438741,SAT-BR-01,3821.0,A,2026-06-01T00:19:30Z,40.0,[],0x63f682df,16.51,19.137,17.54,11.17,28.83,5.359,2.61,74.308,False,101.15,-8.698,-39.977,549.727,7.6295,97.6,165.978,-0.4781,-0.1008,-0.1188,-0.00185,-0.00253,0.00027,DEGRADED,1324222.0,4.0,NOMINAL,1094862.0,1.0,DEGRADED,2113515.0,0.0,NOMINAL,2208447.0,5.0,NOMINAL,1032506.0,1.0,NOMINAL,1571411.0,3.0,-96.15,8.95,1.10822e-06,115.0,4.0,Natal-GS,,,,,,,,,,,,,,,,,,,,
,,,,,,,,,,,,,,,,telemetria_massa.json,2026-06-16 20:18:28.438741,SAT-BR-01,3821.0,C,2026-06-01T00:20:00Z,41.0,[],0x325c44ec,16.189,19.774,55.3,38.21,28.835,5.532,2.228,73.825,False,105.45,-7.686,-41.714,550.14,7.6115,97.6,165.978,0.106,0.412,0.3886,0.00721,0.00179,0.00705,NOMINAL,2314960.0,0.0,NOMINAL,1082794.0,5.0,NOMINAL,788694.0,3.0,NOMINAL,289169.0,2.0,NOMINAL,2339249.0,1.0,NOMINAL,1584827.0,3.0,-97.781,20.95,8.48443e-06,88.0,2.0,Natal-GS,,,,,,,,,,,,,,,,,,,,
,,,,,,,,,,,,,,,,telemetria_massa.json,2026-06-16 20:18:28.438741,SAT-BR-01,3821.0,B,2026-06-01T00:20:30Z,42.0,[],0xdb4f2cd5,15.348,20.446,60.02,22.91,28.972,5.555,5.271,73.777,False,27.51,-6.788,-43.243,550.381,7.6312,97.6,165.978,0.3013,-0.0658,0.4679,-0.00871,0.00535,0.00867,NOMINAL,2358317.0,5.0,NOMINAL,1715720.0,0.0,SAFE_MODE,1605954.0,2.0,NOMINAL,1552149.0,3.0,NOMINAL,2069428.0,3.0,NOMINAL,115194.0,5.0,-96.823,24.52,4.71061e-06,149.0,1.0,Natal-GS,,,,,,,,,,,,,,,,,,,,
,,,,,,,,,,,,,,,,telemetria_massa.json,2026-06-16 20:18:28.438741,SAT-BR-01,3821.0,B,2026-06-01T00:21:00Z,43.0,[],0xd7b2c0ee,16.32,21.107,98.93,31.58,29.088,5.336,2.098,73.799,False,26.56,-5.902,-43.264,550.786,7.62,97.6,165.978,0.4448,0.4025,-0.2977,-0.00776,0.00175,0.00228,SAFE_MODE,2452334.0,2.0,NOMINAL,1564291.0,1.0,NOMINAL,1993215.0,2.0,NOMINAL,1642334.0,2.0,NOMINAL,2441201.0,5.0,NOMINAL,2246465.0,2.0,-95.871,11.32,5.53026e-06,153.0,2.0,CuiabaSat-GS,,,,,,,,,,,,,,,,,,,,
,,,,,,,,,,,,,,,,telemetria_massa.json,2026-06-16 20:18:28.438741,SAT-BR-01,3821.0,C,2026-06-01T00:21:30Z,44.0,[],0x9a28474f,16.896,21.565,8.31,34.76,29.006,5.203,2.995,73.346,False,66.37,-5.277,-44.41,550.859,7.5847,97.6,165.978,0.2365,0.3611,0.2984,-0.00091,0.00106,-0.00869,NOMINAL,1895776.0,4.0,SAFE_MODE,1966376.0,5.0,NOMINAL,2220528.0,0.0,NOMINAL,1780017.0,0.0,NOMINAL,89490.0,1.0,NOMINAL,675870.0,3.0,-97.787,22.84,4.02766e-06,162.0,0.0,CuiabaSat-GS,,,,,,,,,,,,,,,,,,,,
,,,,,,,,,,,,,,,,telemetria_massa.json,2026-06-16 20:18:28.438741,SAT-BR-01,3821.0,B,2026-06-01T00:22:00Z,45.0,[],0x2ebebb6b,16.881,22.436,43.28,30.39,28.993,5.34,3.034,72.632,False,63.96,-4.667,-42.759,551.107,7.6485,97.6,165.978,-0.0005,0.0332,0.3412,0.00348,-0.00035,0.00941,NOMINAL,163414.0,4.0,NOMINAL,451796.0,5.0,DEGRADED,2590543.0,3.0,NOMINAL,475919.0,0.0,NOMINAL,1325677.0,3.0,NOMINAL,1187608.0,2.0,-96.746,8.99,4.9958e-07,40.0,0.0,Natal-GS,,,,,,,,,,,,,,,,,,,,
,,,,,,,,,,,,,,,,telemetria_massa.json,2026-06-16 20:18:28.438741,SAT-BR-01,3821.0,B,2026-06-01T00:22:30Z,46.0,[],0xb6a99227,15.894,22.971,-7.24,33.27,28.825,5.378,4.653,73.013,False,15.6,-4.691,-44.755,551.356,7.648,97.6,165.978,-0.2853,0.3096,-0.3223,0.00845,0.0095,-0.00601,DEGRADED,1732449.0,4.0,NOMINAL,1277508.0,1.0,NOMINAL,2439335.0,4.0,NOMINAL,529841.0,0.0,NOMINAL,1805774.0,3.0,NOMINAL,2580148.0,3.0,-97.51,10.69,4.58719e-06,104.0,3.0,Natal-GS,,,,,,,,,,,,,,,,,,,,
,,,,,,,,,,,,,,,,telemetria_massa.json,2026-06-16 20:18:28.438741,SAT-BR-01,3821.0,C,2026-06-01T00:23:00Z,47.0,[],0xcb5cb78b,15.005,21.972,-0.4,30.27,28.689,5.527,3.848,72.359,False,36.84,-3.733,-46.168,550.94,7.5793,97.6,165.978,0.3785,-0.1181,-0.1134,-0.00025,-0.00785,-0.00916,NOMINAL,1649720.0,2.0,NOMINAL,2301203.0,2.0,NOMINAL,210041.0,0.0,NOMINAL,1374824.0,2.0,NOMINAL,2135770.0,3.0,NOMINAL,1407528.0,4.0,-97.241,11.1,1.51598e-06,42.0,5.0,Alcantara-GS,,,,,,,,,,,,,,,,,,,,
,,,,,,,,,,,,,,,,telemetria_massa.json,2026-06-16 20:18:28.438741,SAT-BR-01,3821.0,B,2026-06-01T00:23:30Z,48.0,[],0x25972c0e,15.416,21.168,12.81,13.46,28.513,5.59,2.589,72.619,False,107.15,-4.121,-48.034,550.78,7.6158,97.6,165.978,-0.4975,0.4198,0.4453,-0.00997,-0.00243,0.00467,NOMINAL,1959673.0,1.0,NOMINAL,2095361.0,0.0,NOMINAL,1799591.0,3.0,NOMINAL,1982241.0,5.0,NOMINAL,2340567.0,0.0,NOMINAL,2561035.0,3.0,-97.111,10.41,8.0662e-07,121.0,3.0,Alcantara-GS,,,,,,,,,,,,,,,,,,,,
,,,,,,,,,,,,,,,,telemetria_massa.json,2026-06-16 20:18:28.438741,SAT-BR-01,3821.0,A,2026-06-01T00:24:00Z,49.0,[],0x8c0d6a84,16.033,21.749,107.17,21.92,28.396,5.396,2.959,72.997,False,110.37,-5.104,-49.944,550.371,7.6243,97.6,165.978,0.1322,-0.4039,0.1701,-0.00284,0.00633,-0.00796,NOMINAL,1769670.0,3.0,NOMINAL,700827.0,1.0,NOMINAL,2278233.0,3.0,NOMINAL,115657.0,1.0,NOMINAL,996615.0,0.0,NOMINAL,102734.0,4.0,-96.757,23.75,8.30365e-06,164.0,4.0,CuiabaSat-GS,,,,,,,,,,,,,,,,,,,,
,,,,,,,,,,,,,,,,telemetria_massa.json,2026-06-16 20:18:28.438741,SAT-BR-01,3821.0,C,2026-06-01T00:24:30Z,50.0,[],0x15051363,15.397,22.078,-9.64,30.89,28.202,5.16,2.708,73.709,False,50.38,-5.452,-50.865,550.183,7.619,97.6,165.978,-0.1975,-0.2924,-0.1883,0.00596,0.00341,-0.00066,NOMINAL,1579664.0,3.0,NOMINAL,374712.0,4.0,NOMINAL,779413.0,0.0,NOMINAL,714064.0,1.0,DEGRADED,757386.0,4.0,NOMINAL,41481.0,0.0,-98.17,23.59,9.51281e-06,160.0,3.0,CuiabaSat-GS,,,,,,,,,,,,,,,,,,,,
,,,,,,,,,,,,,,,,telemetria_massa.json,2026-06-16 20:18:28.438741,SAT-BR-01,3821.0,B,2026-06-01T00:25:00Z,51.0,[],0x598ca3f3,15.0,21.072,89.17,25.07,28.167,5.151,1.518,74.413,False,85.93,-6.527,-52.274,550.04,7.6169,97.6,165.978,0.1787,0.3727,-0.168,-0.00849,-0.00771,-0.00551,NOMINAL,2244611.0,1.0,NOMINAL,2527904.0,0.0,NOMINAL,1432832.0,5.0,NOMINAL,367070.0,3.0,NOMINAL,782757.0,4.0,NOMINAL,2519697.0,1.0,-98.859,8.17,1.29181e-06,18.0,0.0,Natal-GS,,,,,,,,,,,,,,,,,,,,
,,,,,,,,,,,,,,,,telemetria_massa.json,2026-06-16 20:18:28.438741,SAT-BR-01,3821.0,B,2026-06-01T00:25:30Z,52.0,[],0xa12a2031,15.0,21.524,92.82,20.53,28.34,5.316,3.145,74.221,False,87.09,-5.549,-52.441,550.515,7.5607,97.6,165.978,0.0106,0.4239,0.2276,0.00399,0.00921,0.00033,NOMINAL,229053.0,0.0,DEGRADED,1484520.0,4.0,SAFE_MODE,783338.0,1.0,NOMINAL,1109772.0,4.0,NOMINAL,1138113.0,2.0,NOMINAL,114828.0,5.0,-99.208,20.62,4.3218e-06,31.0,2.0,Natal-GS,,,,,,,,,,,,,,,,,,,,
,,,,,,,,,,,,,,,,telemetria_massa.json,2026-06-16 20:18:28.438741,SAT-BR-01,3821.0,B,2026-06-01T00:26:00Z,53.0,[],0x86ba4d5c,16.223,21.477,85.77,31.03,28.462,5.129,2.61,74.023,False,95.79,-5.81,-52.759,550.383,7.5688,97.6,165.978,0.438,-0.332,0.3036,-0.00325,0.00176,-0.00411,NOMINAL,311924.0,0.0,NOMINAL,714965.0,2.0,NOMINAL,1583107.0,5.0,NOMINAL,1443135.0,0.0,NOMINAL,733501.0,0.0,NOMINAL,160470.0,4.0,-100.007,15.04,8.07834e-06,125.0,4.0,Alcantara-GS,,,,,,,,,,,,,,,,,,,,
,,,,,,,,,,,,,,,,telemetria_massa.json,2026-06-16 20:18:28.438741,SAT-BR-01,3821.0,C,2026-06-01T00:26:30Z,54.0,[],0x7001072b,16.59,22.21,70.59,23.27,28.384,5.22,2.285,74.315,False,87.99,-4.765,-51.602,550.506,7.556,97.6,165.978,0.391,0.4922,-0.0357,0.00494,-0.00138,0.00137,NOMINAL,2434565.0,1.0,NOMINAL,2005620.0,0.0,NOMINAL,783748.0,3.0,DEGRADED,659057.0,4.0,NOMINAL,1097994.0,5.0,NOMINAL,2416288.0,5.0,-98.279,18.46,7.56341e-06,28.0,0.0,Natal-GS,,,,,,,,,,,,,,,,,,,,
,,,,,,,,,,,,,,,,telemetria_massa.json,2026-06-16 20:18:28.438741,SAT-BR-01,3821.0,A,2026-06-01T00:27:00Z,55.0,[],0x9816a9dd,17.307,22.064,-4.65,22.93,28.41,5.376,1.785,75.072,False,66.23,-5.796,-52.622,550.261,7.619,97.6,165.978,-0.3191,-0.0025,-0.3489,0.00461,-0.00841,0.00572,NOMINAL,679582.0,0.0,NOMINAL,2241859.0,1.0,NOMINAL,2305183.0,1.0,NOMINAL,78403.0,4.0,NOMINAL,1274385.0,5.0,NOMINAL,512151.0,4.0,-97.276,12.04,8.07678e-06,75.0,0.0,CuiabaSat-GS,,,,,,,,,,,,,,,,,,,,
,,,,,,,,,,,,,,,,telemetria_massa.json,2026-06-16 20:18:28.438741,SAT-BR-01,3821.0,A,2026-06-01T00:27:30Z,56.0,[],0x5f834fe9,18.365,23.01,52.34,14.28,28.607,5.132,3.664,74.833,False,83.35,-6.136,-51.293,550.388,7.595,97.6,165.978,-0.0387,-0.2896,0.4424,0.00496,-0.00395,0.00707,NOMINAL,1967260.0,5.0,NOMINAL,2115301.0,0.0,DEGRADED,28856.0,0.0,NOMINAL,1924759.0,4.0,NOMINAL,1181622.0,1.0,NOMINAL,1915726.0,5.0,-96.233,8.59,8.84193e-06,145.0,2.0,Alcantara-GS,,,,,,,,,,,,,,,,,,,,
,,,,,,,,,,,,,,,,telemetria_massa.json,2026-06-16 20:18:28.438741,SAT-BR-01,3821.0,A,2026-06-01T00:28:00Z,57.0,[],0x1a7a4b25,18.928,23.364,-3.65,25.7,28.797,5.072,4.906,74.658,False,76.86,-6.212,-50.708,550.029,7.6362,97.6,165.978,-0.0394,0.1487,-0.2497,0.00345,-0.0033,0.00397,DEGRADED,1504253.0,2.0,NOMINAL,714905.0,5.0,NOMINAL,860586.0,2.0,NOMINAL,173850.0,1.0,NOMINAL,2333750.0,5.0,NOMINAL,1520708.0,2.0,-94.514,23.54,9.397e-08,144.0,4.0,Alcantara-GS,,,,,,,,,,,,,,,,,,,,
,,,,,,,,,,,,,,,,telemetria_massa.json,2026-06-16 20:18:28.438741,SAT-BR-01,3821.0,B,2026-06-01T00:28:30Z,58.0,"[{'code': 'LOW_SOC', 'subsystem': 'EPS', 'value': 75.13}]",0xef96a891,17.939,22.302,8.28,19.75,28.647,4.811,1.821,75.13,False,22.55,-5.75,-49.657,549.625,7.6286,97.6,165.978,0.2489,-0.0666,0.1742,-0.00206,-0.00978,0.00491,NOMINAL,1420648.0,2.0,NOMINAL,2079968.0,3.0,NOMINAL,990610.0,4.0,NOMINAL,496304.0,5.0,NOMINAL,1823994.0,4.0,NOMINAL,1545918.0,1.0,-94.151,10.2,4.71626e-06,30.0,5.0,Alcantara-GS,,,,,,,,,,,,,,,,,,,,
,,,,,,,,,,,,,,,,telemetria_massa.json,2026-06-16 20:18:28.438741,SAT-BR-01,3821.0,C,2026-06-01T00:29:00Z,59.0,[],0xf481f04e,18.483,22.616,49.68,33.69,28.572,5.037,2.522,74.658,False,52.9,-6.075,-50.001,549.323,7.6268,97.6,165.978,-0.2985,-0.081,0.1924,0.00613,0.00744,0.00671,NOMINAL,307339.0,3.0,NOMINAL,2583193.0,0.0,SAFE_MODE,79238.0,3.0,NOMINAL,1136287.0,2.0,NOMINAL,486504.0,4.0,NOMINAL,1210465.0,4.0,-94.472,22.83,2.38822e-06,16.0,3.0,Natal-GS,,,,,,,,,,,,,,,,,,,,
,,,,,,,,,,,,,,,,telemetria_massa.json,2026-06-16 20:18:28.438741,SAT-BR-01,3821.0,A,2026-06-01T00:29:30Z,60.0,[],0xf8e7894a,17.483,23.74,37.03,18.15,28.481,4.867,3.57,74.985,False,-17.92,-6.276,-51.441,549.375,7.5664,97.6,165.978,-0.1799,-0.2312,-0.0909,0.00832,-0.00072,0.00199,NOMINAL,1605260.0,5.0,NOMINAL,2045182.0,1.0,DEGRADED,102636.0,4.0,NOMINAL,1479328.0,1.0,NOMINAL,2237541.0,5.0,DEGRADED,2348622.0,1.0,-93.592,10.75,2.73309e-06,63.0,2.0,Natal-GS,,,,,,,,,,,,,,,,,,,,
,,,,,,,,,,,,,,,,telemetria_massa.json,2026-06-16 20:18:28.438741,SAT-BR-01,3821.0,B,2026-06-01T00:30:00Z,61.0,[],0xeddf6abb,16.98,22.602,73.99,21.18,28.365,4.94,2.574,74.482,True,76.77,-6.477,-51.716,549.016,7.5915,97.6,165.978,-0.2806,-0.144,-0.0816,-7e-05,0.00033,-0.0061,NOMINAL,1986286.0,3.0,NOMINAL,224558.0,2.0,NOMINAL,2359915.0,3.0,NOMINAL,2105705.0,4.0,NOMINAL,1145011.0,1.0,NOMINAL,466167.0,5.0,-93.156,14.39,6.24592e-06,90.0,3.0,CuiabaSat-GS,,,,,,,,,,,,,,,,,,,,
,,,,,,,,,,,,,,,,telemetria_massa.json,2026-06-16 20:18:28.438741,SAT-BR-01,3821.0,A,2026-06-01T00:30:30Z,62.0,[],0x2a179285,16.846,21.762,42.93,10.55,28.186,4.755,2.313,75.198,False,42.97,-5.614,-50.973,549.293,7.6098,97.6,165.978,-0.2002,-0.129,-0.2336,0.00687,-0.00999,-0.00214,SAFE_MODE,2481376.0,5.0,NOMINAL,627020.0,2.0,NOMINAL,677497.0,4.0,NOMINAL,1664663.0,4.0,NOMINAL,22836.0,5.0,NOMINAL,126232.0,0.0,-94.169,9.67,6.68593e-06,148.0,3.0,Alcantara-GS,,,,,,,,,,,,,,,,,,,,
,,,,,,,,,,,,,,,,telemetria_massa.json,2026-06-16 20:18:28.438741,SAT-BR-01,3821.0,C,2026-06-01T00:31:00Z,63.0,[],0xceb6da79,18.232,21.41,60.55,23.42,28.277,4.712,4.804,74.725,False,30.1,-5.819,-51.549,549.273,7.6167,97.6,165.978,-0.092,-0.4523,0.0451,-0.00141,0.00163,0.00769,NOMINAL,1808530.0,5.0,NOMINAL,248352.0,5.0,NOMINAL,2485664.0,2.0,NOMINAL,134530.0,2.0,NOMINAL,2147755.0,2.0,NOMINAL,1242762.0,5.0,-94.73,16.4,4.87856e-06,100.0,0.0,Alcantara-GS,,,,,,,,,,,,,,,,,,,,
,,,,,,,,,,,,,,,,telemetria_massa.json,2026-06-16 20:18:28.438741,SAT-BR-01,3821.0,B,2026-06-01T00:31:30Z,64.0,[],0x4842e8d,18.73,21.12,-21.05,16.71,28.428,4.429,2.16,75.394,False,42.94,-4.653,-50.159,549.416,7.6357,97.6,165.978,0.4113,0.3215,-0.2698,-0.00185,0.00697,0.00327,NOMINAL,935610.0,2.0,NOMINAL,389013.0,3.0,DEGRADED,561325.0,0.0,NOMINAL,2340973.0,1.0,NOMINAL,2407227.0,0.0,NOMINAL,114725.0,5.0,-96.485,13.48,2.0374e-07,126.0,0.0,Natal-GS,,,,,,,,,,,,,,,,,,,,
,,,,,,,,,,,,,,,,telemetria_massa.json,2026-06-16 20:18:28.438741,SAT-BR-01,3821.0,C,2026-06-01T00:32:00Z,65.0,[],0x1c3f2eb,18.514,20.196,50.49,30.03,28.53,4.545,4.333,75.317,False,59.12,-3.714,-48.266,549.088,7.6403,97.6,165.978,-0.4648,-0.2444,0.0767,0.00826,0.00933,-0.00192,NOMINAL,2209005.0,2.0,NOMINAL,828279.0,2.0,NOMINAL,1148460.0,2.0,NOMINAL,652583.0,4.0,NOMINAL,1085034.0,3.0,NOMINAL,2000050.0,1.0,-98.069,12.22,9.37137e-06,20.0,1.0,Natal-GS,,,,,,,,,,,,,,,,,,,,
,,,,,,,,,,,,,,,,telemetria_massa.json,2026-06-16 20:18:28.438741,SAT-BR-01,3821.0,A,2026-06-01T00:32:30Z,66.0,[],0x7e5c09b7,17.077,21.19,2.98,39.93,28.549,4.318,2.206,75.42,True,6.74,-2.561,-49.129,549.122,7.5547,97.6,165.978,-0.3791,-0.3743,0.0263,0.00258,-0.00822,-0.00424,NOMINAL,455547.0,0.0,NOMINAL,2464888.0,2.0,NOMINAL,216263.0,3.0,NOMINAL,428280.0,4.0,NOMINAL,1224944.0,0.0,NOMINAL,1620759.0,2.0,-98.613,15.07,4.17663e-06,70.0,3.0,Alcantara-GS,,,,,,,,,,,,,,,,,,,,
,,,,,,,,,,,,,,,,telemetria_massa.json,2026-06-16 20:18:28.438741,SAT-BR-01,3821.0,C,2026-06-01T00:33:00Z,67.0,[],0x4c2b780a,18.5,21.54,36.48,32.96,28.728,4.412,3.324,75.577,False,54.33,-2.403,-47.574,549.285,7.5874,97.6,165.978,-0.2606,-0.1788,0.2421,-0.00144,-0.00669,-0.00695,NOMINAL,1260487.0,3.0,NOMINAL,1623222.0,0.0,NOMINAL,2564054.0,3.0,NOMINAL,2420789.0,0.0,DEGRADED,382641.0,5.0,NOMINAL,1596355.0,0.0,-97.946,18.31,3.73585e-06,35.0,2.0,Alcantara-GS,,,,,,,,,,,,,,,,,,,,
,,,,,,,,,,,,,,,,telemetria_massa.json,2026-06-16 20:18:28.438741,SAT-BR-01,3821.0,B,2026-06-01T00:33:30Z,68.0,[],0x5b78fc11,19.644,22.146,-22.06,19.32,28.588,4.536,3.538,74.882,False,40.87,-2.594,-46.886,548.808,7.5935,97.6,165.978,0.0521,-0.1134,-0.1311,0.00341,0.00195,-0.00372,NOMINAL,2374249.0,3.0,NOMINAL,1512285.0,2.0,NOMINAL,278908.0,1.0,NOMINAL,1223607.0,0.0,NOMINAL,343520.0,5.0,NOMINAL,559954.0,1.0,-99.154,18.41,8.82329e-06,16.0,5.0,Alcantara-GS,,,,,,,,,,,,,,,,,,,,
,,,,,,,,,,,,,,,,telemetria_massa.json,2026-06-16 20:18:28.438741,SAT-BR-01,3821.0,B,2026-06-01T00:34:00Z,69.0,[],0x3641b4dd,18.656,21.572,-6.11,12.95,28.523,4.82,4.482,75.15,False,6.04,-2.003,-47.832,548.463,7.5542,97.6,165.978,-0.1994,-0.2442,-0.3126,0.00036,-0.00725,0.0093,NOMINAL,2512053.0,4.0,NOMINAL,1942900.0,3.0,NOMINAL,1990760.0,1.0,NOMINAL,462984.0,5.0,NOMINAL,1870262.0,1.0,NOMINAL,165573.0,5.0,-100.979,19.95,2.25973e-06,136.0,0.0,Natal-GS,,,,,,,,,,,,,,,,,,,,
,,,,,,,,,,,,,,,,telemetria_massa.json,2026-06-16 20:18:28.438741,SAT-BR-01,3821.0,C,2026-06-01T00:34:30Z,70.0,[],0xbb099b5b,19.436,20.576,39.63,37.3,28.578,4.944,3.869,74.358,True,-0.68,-2.272,-49.506,548.039,7.6183,97.6,165.978,0.4077,-0.3369,0.0335,0.00737,0.00617,-0.00353,SAFE_MODE,2393023.0,2.0,NOMINAL,1320884.0,2.0,NOMINAL,1222693.0,1.0,NOMINAL,226652.0,2.0,NOMINAL,2296815.0,3.0,NOMINAL,1203390.0,1.0,-102.874,8.04,5.40615e-06,85.0,4.0,CuiabaSat-GS,,,,,,,,,,,,,,,,,,,,
,,,,,,,,,,,,,,,,telemetria_massa.json,2026-06-16 20:18:28.438741,SAT-BR-01,3821.0,B,2026-06-01T00:35:00Z,71.0,[],0x63938761,17.966,21.326,12.04,14.63,28.715,4.752,4.486,73.712,False,87.66,-2.494,-49.861,548.468,7.6367,97.6,165.978,-0.1183,-0.3079,0.2812,-0.00336,-0.00028,0.00366,NOMINAL,1369021.0,2.0,NOMINAL,2219546.0,4.0,NOMINAL,1795279.0,1.0,DEGRADED,1425046.0,4.0,NOMINAL,1393847.0,2.0,NOMINAL,28301.0,5.0,-101.769,13.45,7.06529e-06,175.0,1.0,Natal-GS,,,,,,,,,,,,,,,,,,,,
,,,,,,,,,,,,,,,,telemetria_massa.json,2026-06-16 20:18:28.438741,SAT-BR-01,3821.0,B,2026-06-01T00:35:30Z,72.0,[],0xe056511f,17.522,21.567,36.38,31.76,28.757,4.532,5.046,73.11,False,46.46,-3.66,-51.233,548.957,7.636,97.6,165.978,0.0484,0.4098,-0.4458,-0.00804,0.00052,-0.00447,NOMINAL,764442.0,3.0,NOMINAL,1521639.0,2.0,NOMINAL,221827.0,0.0,NOMINAL,744112.0,4.0,NOMINAL,86271.0,1.0,NOMINAL,1794386.0,4.0,-100.334,12.16,5.43979e-06,86.0,0.0,Alcantara-GS,,,,,,,,,,,,,,,,,,,,
,,,,,,,,,,,,,,,,telemetria_massa.json,2026-06-16 20:18:28.438741,SAT-BR-01,3821.0,C,2026-06-01T00:36:00Z,73.0,[],0x362c384c,17.444,21.751,42.74,28.84,28.857,4.335,4.835,73.275,False,48.6,-3.495,-51.737,548.841,7.5526,97.6,165.978,-0.1405,0.4068,0.1347,-0.00574,0.0024,-0.00178,NOMINAL,827732.0,2.0,SAFE_MODE,521289.0,3.0,NOMINAL,225919.0,2.0,NOMINAL,2067689.0,3.0,NOMINAL,2411688.0,0.0,NOMINAL,1504876.0,2.0,-102.051,18.84,1.92141e-06,57.0,1.0,Alcantara-GS,,,,,,,,,,,,,,,,,,,,
,,,,,,,,,,,,,,,,telemetria_massa.json,2026-06-16 20:18:28.438741,SAT-BR-01,3821.0,C,2026-06-01T00:36:30Z,74.0,[],0x36bbdf19,15.947,21.695,-12.59,30.46,28.723,4.137,5.494,72.959,True,19.55,-3.806,-51.445,549.116,7.5691,97.6,165.978,0.2268,0.4668,0.0481,0.00776,0.00894,0.00481,NOMINAL,2522426.0,4.0,NOMINAL,2396482.0,5.0,NOMINAL,2315178.0,3.0,NOMINAL,1746143.0,3.0,NOMINAL,2136323.0,5.0,NOMINAL,1251371.0,1.0,-104.035,21.99,9.38143e-06,120.0,2.0,Alcantara-GS,,,,,,,,,,,,,,,,,,,,
,,,,,,,,,,,,,,,,telemetria_massa.json,2026-06-16 20:18:28.438741,SAT-BR-01,3821.0,A,2026-06-01T00:37:00Z,75.0,[],0xdd864484,17.066,21.674,80.39,28.19,28.625,4.348,1.678,72.99,False,50.67,-4.719,-52.035,549.27,7.586,97.6,165.978,-0.3008,0.0959,-0.2206,0.00926,0.00033,0.00042,NOMINAL,1028532.0,4.0,NOMINAL,1040768.0,4.0,NOMINAL,900403.0,3.0,NOMINAL,1541490.0,5.0,NOMINAL,53231.0,0.0,NOMINAL,973805.0,5.0,-103.223,23.92,5.21254e-06,156.0,3.0,Alcantara-GS,,,,,,,,,,,,,,,,,,,,
,,,,,,,,,,,,,,,,telemetria_massa.json,2026-06-16 20:18:28.438741,SAT-BR-01,3821.0,A,2026-06-01T00:37:30Z,76.0,[],0x16fcaa91,16.984,22.658,-28.47,37.39,28.74,4.21,3.933,72.824,False,16.28,-4.927,-51.167,549.014,7.6405,97.6,165.978,-0.1014,0.3452,-0.0088,0.00015,-0.00353,-0.00272,NOMINAL,206861.0,2.0,NOMINAL,2281228.0,0.0,NOMINAL,1580836.0,0.0,NOMINAL,667809.0,3.0,NOMINAL,581121.0,2.0,NOMINAL,950464.0,3.0,-104.798,16.41,7.62205e-06,10.0,2.0,Natal-GS,,,,,,,,,,,,,,,,,,,,
,,,,,,,,,,,,,,,,telemetria_massa.json,2026-06-16 20:18:28.438741,SAT-BR-01,3821.0,A,2026-06-01T00:38:00Z,77.0,[],0xf7ea0c1,15.619,21.642,60.19,21.79,28.547,4.323,2.602,73.576,True,-25.27,-4.055,-49.238,548.776,7.6156,97.6,165.978,-0.0234,0.3448,0.4974,0.00185,0.00888,-0.00468,NOMINAL,629496.0,3.0,NOMINAL,900923.0,0.0,NOMINAL,2048225.0,4.0,NOMINAL,28031.0,2.0,NOMINAL,1853001.0,1.0,NOMINAL,1720028.0,2.0,-104.057,14.54,8.94301e-06,137.0,1.0,CuiabaSat-GS,,,,,,,,,,,,,,,,,,,,
,,,,,,,,,,,,,,,,telemetria_massa.json,2026-06-16 20:18:28.438741,SAT-BR-01,3821.0,A,2026-06-01T00:38:30Z,78.0,[],0x9f3a546e,15.0,20.864,-6.41,15.31,28.506,4.338,5.155,72.813,True,65.79,-5.083,-47.422,548.309,7.5962,97.6,165.978,0.2919,-0.1109,-0.1021,0.00761,-0.00254,0.00164,NOMINAL,2281868.0,3.0,NOMINAL,1251285.0,0.0,NOMINAL,542453.0,5.0,NOMINAL,1302923.0,4.0,NOMINAL,732528.0,0.0,NOMINAL,735744.0,3.0,-104.45,12.31,9.00292e-06,171.0,1.0,Alcantara-GS,,,,,,,,,,,,,,,,,,,,
,,,,,,,,,,,,,,,,telemetria_massa.json,2026-06-16 20:18:28.438741,SAT-BR-01,3821.0,B,2026-06-01T00:39:00Z,79.0,[],0x85792855,15.54,21.496,47.98,26.9,28.583,4.513,5.323,72.721,True,36.67,-5.786,-47.272,548.434,7.5611,97.6,165.978,-0.4299,-0.0825,0.4733,0.00519,0.00337,7e-05,DEGRADED,2513477.0,5.0,NOMINAL,640680.0,3.0,NOMINAL,2227635.0,5.0,NOMINAL,1893397.0,4.0,NOMINAL,363254.0,2.0,NOMINAL,1443508.0,0.0,-103.515,18.04,2.39327e-06,64.0,1.0,Alcantara-GS,,,,,,,,,,,,,,,,,,,,
,,,,,,,,,,,,,,,,telemetria_massa.json,2026-06-16 20:18:28.438741,SAT-BR-01,3821.0,C,2026-06-01T00:39:30Z,80.0,[],0x127fe7aa,15.0,21.499,8.35,15.1,28.703,4.647,3.87,73.482,False,72.43,-6.183,-47.278,548.775,7.5559,97.6,165.978,0.115,0.127,-0.2687,-0.00388,-0.00388,0.00653,NOMINAL,1235420.0,3.0,NOMINAL,2017267.0,2.0,DEGRADED,1818363.0,2.0,DEGRADED,508485.0,1.0,NOMINAL,348433.0,0.0,NOMINAL,1561688.0,1.0,-102.095,22.24,7.19308e-06,170.0,4.0,Alcantara-GS,,,,,,,,,,,,,,,,,,,,
,,,,,,,,,,,,,,,,telemetria_massa.json,2026-06-16 20:18:28.438741,SAT-BR-01,3821.0,C,2026-06-01T00:40:00Z,81.0,[],0x1952d749,15.0,22.191,27.65,10.99,28.76,4.833,4.129,73.876,False,69.15,-5.021,-47.842,548.791,7.5737,97.6,165.978,-0.1286,-0.4285,0.1566,-0.00343,-0.0067,-0.00355,NOMINAL,2413302.0,5.0,NOMINAL,1516647.0,3.0,NOMINAL,876749.0,0.0,NOMINAL,1686649.0,4.0,NOMINAL,234560.0,0.0,NOMINAL,664157.0,2.0,-102.852,15.99,8.49529e-06,58.0,0.0,Natal-GS,,,,,,,,,,,,,,,,,,,,
,,,,,,,,,,,,,,,,telemetria_massa.json,2026-06-16 20:18:28.438741,SAT-BR-01,3821.0,B,2026-06-01T00:40:30Z,82.0,[],0x630b46c2,15.009,21.745,31.35,18.27,28.596,4.57,2.873,73.737,False,-7.27,-5.772,-47.284,548.402,7.5874,97.6,165.978,0.1501,0.4988,-0.0584,0.00894,0.00515,-0.00612,NOMINAL,1704883.0,2.0,NOMINAL,2129755.0,3.0,NOMINAL,1547152.0,3.0,NOMINAL,379033.0,2.0,DEGRADED,308500.0,3.0,NOMINAL,1481243.0,2.0,-102.092,18.81,9.28396e-06,122.0,1.0,Natal-GS,,,,,,,,,,,,,,,,,,,,
,,,,,,,,,,,,,,,,telemetria_massa.json,2026-06-16 20:18:28.438741,SAT-BR-01,3821.0,A,2026-06-01T00:41:00Z,83.0,[],0x9afaf23a,15.774,21.67,37.22,12.79,28.445,4.674,5.253,73.424,False,72.06,-6.346,-47.041,548.891,7.6468,97.6,165.978,0.3156,-0.3745,0.4628,0.0059,0.00598,-0.00339,NOMINAL,2366575.0,3.0,NOMINAL,341173.0,3.0,NOMINAL,1218842.0,0.0,NOMINAL,65418.0,2.0,NOMINAL,43963.0,0.0,NOMINAL,1363783.0,5.0,-101.394,11.82,7.35724e-06,13.0,5.0,Natal-GS,,,,,,,,,,,,,,,,,,,,
,,,,,,,,,,,,,,,,telemetria_massa.json,2026-06-16 20:18:28.438741,SAT-BR-01,3821.0,B,2026-06-01T00:41:30Z,84.0,[],0x6e1f3e0a,16.6,21.687,76.53,21.94,28.513,4.521,1.928,73.833,False,81.88,-6.654,-45.348,548.497,7.6129,97.6,165.978,-0.037,0.0419,0.0916,-0.00342,0.00152,-0.0084,NOMINAL,441655.0,4.0,NOMINAL,92429.0,5.0,NOMINAL,1926288.0,4.0,NOMINAL,1398772.0,3.0,NOMINAL,2451783.0,5.0,NOMINAL,1771135.0,3.0,-102.852,9.14,8.81253e-06,120.0,3.0,Alcantara-GS,,,,,,,,,,,,,,,,,,,,
,,,,,,,,,,,,,,,,telemetria_massa.json,2026-06-16 20:18:28.438741,SAT-BR-01,3821.0,A,2026-06-01T00:42:00Z,85.0,[],0x331ffe8e,15.4,21.609,72.41,26.51,28.558,4.661,1.592,74.27,False,-23.23,-7.675,-45.093,548.36,7.633,97.6,165.978,-0.354,0.0159,-0.0319,-0.00402,-0.00879,0.0074,NOMINAL,1209846.0,5.0,NOMINAL,1542247.0,0.0,NOMINAL,2156690.0,4.0,NOMINAL,1425774.0,0.0,NOMINAL,2278416.0,4.0,NOMINAL,337553.0,3.0,-102.288,19.53,7.68759e-06,135.0,4.0,CuiabaSat-GS,,,,,,,,,,,,,,,,,,,,
,,,,,,,,,,,,,,,,telemetria_massa.json,2026-06-16 20:18:28.438741,SAT-BR-01,3821.0,A,2026-06-01T00:42:30Z,86.0,[],0x2556939b,16.312,20.515,67.68,28.44,28.668,4.622,3.115,74.363,False,46.56,-8.519,-44.138,548.622,7.6159,97.6,165.978,0.1958,-0.1194,-0.1835,-0.00951,-0.00616,0.00975,NOMINAL,1204719.0,1.0,NOMINAL,2349575.0,1.0,SAFE_MODE,1604854.0,4.0,SAFE_MODE,1443211.0,3.0,NOMINAL,922187.0,5.0,SAFE_MODE,1481436.0,3.0,-104.164,8.37,1.06414e-06,150.0,2.0,CuiabaSat-GS,,,,,,,,,,,,,,,,,,,,
,,,,,,,,,,,,,,,,telemetria_massa.json,2026-06-16 20:18:28.438741,SAT-BR-01,3821.0,A,2026-06-01T00:43:00Z,87.0,[],0x71e3cccd,15.819,19.432,0.96,32.81,28.687,4.507,4.734,74.476,False,8.59,-8.771,-45.901,548.502,7.5689,97.6,165.978,-0.297,-0.3847,-0.2045,-0.00069,0.00895,-0.00897,NOMINAL,2406669.0,3.0,NOMINAL,1772075.0,1.0,DEGRADED,673059.0,1.0,NOMINAL,2381683.0,5.0,NOMINAL,851620.0,3.0,NOMINAL,705276.0,0.0,-103.767,22.57,7.24295e-06,150.0,2.0,Alcantara-GS,,,,,,,,,,,,,,,,,,,,
,,,,,,,,,,,,,,,,telemetria_massa.json,2026-06-16 20:18:28.438741,SAT-BR-01,3821.0,B,2026-06-01T00:43:30Z,88.0,[],0xc3cd63fe,15.791,19.821,25.57,21.06,28.519,4.216,2.597,74.782,False,75.76,-9.001,-45.006,548.724,7.6438,97.6,165.978,-0.0022,0.4632,-0.2595,-0.00353,-0.00517,0.00551,NOMINAL,254837.0,4.0,NOMINAL,854573.0,0.0,NOMINAL,2351847.0,1.0,DEGRADED,1092008.0,4.0,NOMINAL,1854445.0,0.0,NOMINAL,2428225.0,5.0,-103.812,15.14,1.4905e-06,86.0,1.0,CuiabaSat-GS,,,,,,,,,,,,,,,,,,,,
,,,,,,,,,,,,,,,,telemetria_massa.json,2026-06-16 20:18:28.438741,SAT-BR-01,3821.0,A,2026-06-01T00:44:00Z,89.0,[],0x2486cc5d,15.343,20.747,33.28,28.47,28.377,4.451,4.622,75.045,True,53.16,-8.777,-44.314,548.451,7.641,97.6,165.978,-0.3538,-0.3334,0.2292,0.00874,0.00113,-0.00662,NOMINAL,2425553.0,3.0,DEGRADED,2047698.0,0.0,NOMINAL,1846904.0,3.0,NOMINAL,289792.0,2.0,NOMINAL,1258989.0,5.0,NOMINAL,1121919.0,2.0,-103.689,12.23,4.4525e-07,42.0,4.0,Natal-GS,,,,,,,,,,,,,,,,,,,,
,,,,,,,,,,,,,,,,telemetria_massa.json,2026-06-16 20:18:28.438741,SAT-BR-01,3821.0,C,2026-06-01T00:44:30Z,90.0,[],0xa30eeb05,15.48,20.454,89.48,34.51,28.277,4.21,1.642,75.067,True,-5.94,-9.781,-42.787,548.17,7.6323,97.6,165.978,0.1665,-0.2365,-0.0031,0.00587,0.0003,-0.00784,NOMINAL,511498.0,4.0,NOMINAL,994791.0,2.0,NOMINAL,123043.0,3.0,NOMINAL,1265707.0,4.0,NOMINAL,911140.0,0.0,NOMINAL,1288424.0,2.0,-102.615,8.42,8.63934e-06,150.0,1.0,CuiabaSat-GS,,,,,,,,,,,,,,,,,,,,
,,,,,,,,,,,,,,,,telemetria_massa.json,2026-06-16 20:18:28.438741,SAT-BR-01,3821.0,B,2026-06-01T00:45:00Z,91.0,[],0xcb2c5d2d,15.971,20.782,42.58,39.98,28.42,4.385,1.887,75.25,False,50.15,-10.632,-44.133,548.553,7.6052,97.6,165.978,0.2012,-0.2011,0.1555,-0.00483,0.0076,-0.00659,NOMINAL,2253352.0,3.0,NOMINAL,692407.0,2.0,NOMINAL,1269906.0,3.0,NOMINAL,1936739.0,0.0,NOMINAL,1227690.0,1.0,NOMINAL,1517582.0,4.0,-100.941,17.26,8.01099e-06,23.0,3.0,CuiabaSat-GS,,,,,,,,,,,,,,,,,,,,
,,,,,,,,,,,,,,,,telemetria_massa.json,2026-06-16 20:18:28.438741,SAT-BR-01,3821.0,A,2026-06-01T00:45:30Z,92.0,[],0x217b60cf,15.231,19.795,30.61,11.13,28.391,4.259,1.902,75.458,False,47.61,-10.131,-42.975,548.334,7.635,97.6,165.978,-0.3853,0.0546,-0.3988,-0.00181,-0.00087,-0.00643,NOMINAL,96365.0,4.0,NOMINAL,2560278.0,5.0,NOMINAL,1714226.0,5.0,NOMINAL,387388.0,3.0,NOMINAL,1137689.0,3.0,NOMINAL,77845.0,1.0,-99.399,8.8,1.94999e-06,89.0,0.0,Alcantara-GS,,,,,,,,,,,,,,,,,,,,
,,,,,,,,,,,,,,,,telemetria_massa.json,2026-06-16 20:18:28.438741,SAT-BR-01,3821.0,B,2026-06-01T00:46:00Z,93.0,[],0x9fe76c22,15.107,20.332,-29.41,20.32,28.314,4.06,3.242,75.105,False,28.25,-9.162,-42.858,547.899,7.5648,97.6,165.978,0.0732,-0.1062,-0.3766,0.0085,-0.00654,-0.00446,NOMINAL,576745.0,3.0,NOMINAL,286424.0,4.0,NOMINAL,2388247.0,3.0,NOMINAL,1820800.0,0.0,NOMINAL,1120793.0,3.0,NOMINAL,72696.0,1.0,-99.352,15.53,9.31105e-06,197.0,2.0,CuiabaSat-GS,,,,,,,,,,,,,,,,,,,,
,,,,,,,,,,,,,,,,telemetria_massa.json,2026-06-16 20:18:28.438741,SAT-BR-01,3821.0,C,2026-06-01T00:46:30Z,94.0,[],0x223a335d,16.091,19.792,-9.26,28.81,28.249,4.216,2.517,75.08,False,65.51,-9.28,-41.72,547.415,7.5525,97.6,165.978,0.1561,0.2734,0.3635,0.00931,0.00327,0.00643,SAFE_MODE,553121.0,4.0,NOMINAL,2074565.0,0.0,NOMINAL,2171036.0,1.0,DEGRADED,1224652.0,1.0,NOMINAL,480368.0,5.0,NOMINAL,1111485.0,1.0,-99.213,13.06,5.6852e-07,180.0,2.0,Natal-GS,,,,,,,,,,,,,,,,,,,,
,,,,,,,,,,,,,,,,telemetria_massa.json,2026-06-16 20:18:28.438741,SAT-BR-01,3821.0,A,2026-06-01T00:47:00Z,95.0,[],0xb661fecc,15.494,18.952,28.96,36.51,28.284,4.248,1.698,74.969,True,-18.47,-8.706,-40.052,547.031,7.6406,97.6,165.978,0.2058,-0.14,-0.337,-0.00766,-0.00556,-0.00438,NOMINAL,1799041.0,2.0,NOMINAL,1655000.0,1.0,SAFE_MODE,2017833.0,0.0,NOMINAL,176286.0,0.0,NOMINAL,187321.0,3.0,NOMINAL,1010850.0,2.0,-98.917,23.88,4.94138e-06,172.0,4.0,Natal-GS,,,,,,,,,,,,,,,,,,,,
,,,,,,,,,,,,,,,,telemetria_massa.json,2026-06-16 20:18:28.438741,SAT-BR-01,3821.0,B,2026-06-01T00:47:30Z,96.0,[],0x662bf8f1,15.0,18.659,34.48,22.56,28.199,4.46,3.015,74.262,False,40.93,-9.157,-39.001,546.741,7.6436,97.6,165.978,0.3044,0.4642,0.2144,-0.00561,0.00405,-0.00794,DEGRADED,1167411.0,0.0,NOMINAL,696386.0,2.0,NOMINAL,676989.0,0.0,NOMINAL,1073122.0,5.0,NOMINAL,837190.0,5.0,NOMINAL,1189901.0,5.0,-98.499,24.97,6.91213e-06,44.0,0.0,CuiabaSat-GS,,,,,,,,,,,,,,,,,,,,
,,,,,,,,,,,,,,,,telemetria_massa.json,2026-06-16 20:18:28.438741,SAT-BR-01,3822.0,B,2026-06-01T00:48:00Z,97.0,[],0x52cd7f93,15.053,17.754,102.21,11.29,28.349,4.253,1.711,74.768,False,66.68,-8.342,-40.802,546.523,7.6118,97.6,166.963,0.0605,-0.0775,-0.4245,-0.00414,0.00163,-0.00355,NOMINAL,2252047.0,1.0,NOMINAL,1731149.0,2.0,NOMINAL,1917982.0,4.0,NOMINAL,152531.0,2.0,NOMINAL,2260346.0,1.0,NOMINAL,382680.0,0.0,-99.594,17.23,4.97988e-06,19.0,4.0,CuiabaSat-GS,,,,,,,,,,,,,,,,,,,,
,,,,,,,,,,,,,,,,telemetria_massa.json,2026-06-16 20:18:28.438741,SAT-BR-01,3822.0,B,2026-06-01T00:48:30Z,98.0,[],0x16152ab1,15.545,17.545,106.8,11.12,28.35,4.544,4.401,75.041,False,52.47,-7.863,-39.353,546.326,7.6469,97.6,166.963,-0.3507,0.318,0.1653,0.00122,0.00171,-0.00995,NOMINAL,417876.0,1.0,NOMINAL,1509431.0,2.0,DEGRADED,1496468.0,4.0,SAFE_MODE,1545083.0,4.0,NOMINAL,1124033.0,0.0,SAFE_MODE,1843079.0,0.0,-100.471,15.37,3.38138e-06,65.0,3.0,Alcantara-GS,,,,,,,,,,,,,,,,,,,,
,,,,,,,,,,,,,,,,telemetria_massa.json,2026-06-16 20:18:28.438741,SAT-BR-01,3822.0,C,2026-06-01T00:49:00Z,99.0,[],0x41e688dc,16.641,18.259,-23.81,17.47,28.221,4.263,4.275,75.201,True,55.42,-8.132,-39.756,546.133,7.5571,97.6,166.963,-0.2131,0.4753,0.1954,0.00245,-0.00061,-0.00688,NOMINAL,1754980.0,2.0,NOMINAL,1306734.0,4.0,NOMINAL,265073.0,0.0,NOMINAL,1713036.0,4.0,NOMINAL,745484.0,3.0,NOMINAL,495835.0,3.0,-98.884,11.99,1.4582e-07,41.0,2.0,Alcantara-GS,,,,,,,,,,,,,,,,,,,,
,,,,,,,,,,,,,,,,telemetria_massa.json,2026-06-16 20:18:28.438741,SAT-BR-01,3822.0,C,2026-06-01T00:49:30Z,100.0,[],0x21911eb7,17.672,18.287,53.84,37.81,28.047,4.379,2.395,75.194,True,68.71,-8.166,-37.99,545.717,7.5617,97.6,166.963,0.3033,0.3085,-0.4255,0.00445,0.00718,-0.00379,NOMINAL,1598820.0,3.0,NOMINAL,537447.0,4.0,NOMINAL,844433.0,5.0,NOMINAL,747989.0,0.0,NOMINAL,952073.0,4.0,NOMINAL,1081582.0,0.0,-100.661,20.97,2.312e-08,84.0,3.0,Natal-GS,,,,,,,,,,,,,,,,,,,,
,,,,,,,,,,,,,,,,telemetria_massa.json,2026-06-16 20:18:28.438741,SAT-BR-01,3822.0,C,2026-06-01T00:50:00Z,101.0,[],0x602e69a9,17.625,19.465,9.39,38.02,28.054,4.225,2.989,75.863,False,28.68,-8.636,-37.076,545.465,7.5562,97.6,166.963,-0.0205,0.0157,0.4214,0.00701,-0.00622,-0.00529,NOMINAL,1797803.0,4.0,NOMINAL,264284.0,3.0,NOMINAL,465801.0,4.0,NOMINAL,13482.0,3.0,NOMINAL,1621190.0,2.0,NOMINAL,595411.0,2.0,-101.181,24.3,2.60984e-06,198.0,1.0,Natal-GS,,,,,,,,,,,,,,,,,,,,
,,,,,,,,,,,,,,,,telemetria_massa.json,2026-06-16 20:18:28.438741,SAT-BR-01,3822.0,C,2026-06-01T00:50:30Z,102.0,[],0xab29cf80,16.935,19.152,38.11,10.06,28.089,4.428,2.852,75.531,False,59.13,-8.68,-38.994,545.607,7.6202,97.6,166.963,0.0964,-0.0188,-0.3727,-0.005,0.00365,0.00058,NOMINAL,1041547.0,3.0,NOMINAL,1693778.0,3.0,NOMINAL,410299.0,1.0,SAFE_MODE,1696153.0,5.0,NOMINAL,2177120.0,3.0,NOMINAL,856714.0,4.0,-102.613,17.82,3.34094e-06,135.0,0.0,Alcantara-GS,,,,,,,,,,,,,,,,,,,,
,,,,,,,,,,,,,,,,telemetria_massa.json,2026-06-16 20:18:28.438741,SAT-BR-01,3822.0,B,2026-06-01T00:51:00Z,103.0,[],0x3d5feb58,16.993,18.069,55.11,33.96,28.056,4.348,2.263,76.232,False,15.93,-8.071,-38.359,545.609,7.5661,97.6,166.963,-0.0551,-0.3298,0.3266,0.00544,0.00822,0.00065,NOMINAL,505003.0,2.0,NOMINAL,1543298.0,5.0,SAFE_MODE,1601955.0,0.0,NOMINAL,225486.0,1.0,NOMINAL,1948911.0,2.0,NOMINAL,1930645.0,3.0,-100.917,23.54,3.84661e-06,148.0,0.0,Alcantara-GS,,,,,,,,,,,,,,,,,,,,
,,,,,,,,,,,,,,,,telemetria_massa.json,2026-06-16 20:18:28.438741,SAT-BR-01,3822.0,C,2026-06-01T00:51:30Z,104.0,[],0x4753014d,17.412,17.614,81.15,18.04,27.866,4.467,4.484,76.563,False,56.84,-8.053,-37.85,545.984,7.5825,97.6,166.963,-0.4556,0.0463,-0.1877,0.00515,-0.00504,0.00599,SAFE_MODE,1633168.0,0.0,NOMINAL,608043.0,3.0,NOMINAL,2276630.0,5.0,NOMINAL,965165.0,4.0,NOMINAL,2514765.0,1.0,DEGRADED,1240135.0,3.0,-100.923,23.68,7.45061e-06,185.0,5.0,CuiabaSat-GS,,,,,,,,,,,,,,,,,,,,
,,,,,,,,,,,,,,,,telemetria_massa.json,2026-06-16 20:18:28.438741,SAT-BR-01,3822.0,C,2026-06-01T00:52:00Z,105.0,[],0x436738eb,16.356,16.822,69.37,10.45,27.828,4.351,2.268,76.822,True,8.57,-7.797,-35.865,545.512,7.6424,97.6,166.963,-0.0886,0.3967,-0.1145,0.00165,-0.0005,0.00653,NOMINAL,2165226.0,0.0,NOMINAL,2542228.0,5.0,NOMINAL,1236645.0,2.0,NOMINAL,2179732.0,1.0,NOMINAL,2078145.0,0.0,DEGRADED,1458019.0,4.0,-101.078,9.37,6.34093e-06,169.0,5.0,Natal-GS,,,,,,,,,,,,,,,,,,,,
,,,,,,,,,,,,,,,,telemetria_massa.json,2026-06-16 20:18:28.438741,SAT-BR-01,3822.0,C,2026-06-01T00:52:30Z,106.0,[],0x5c703fdf,16.087,17.007,32.36,14.82,27.732,4.298,1.886,77.044,False,-33.05,-8.017,-35.452,545.86,7.6363,97.6,166.963,-0.4566,0.2734,0.2973,-0.00106,0.00394,0.00113,NOMINAL,369216.0,5.0,DEGRADED,1581283.0,0.0,NOMINAL,600488.0,2.0,NOMINAL,2290221.0,1.0,NOMINAL,1083924.0,5.0,NOMINAL,715586.0,3.0,-102.747,24.54,6.39162e-06,139.0,0.0,CuiabaSat-GS,,,,,,,,,,,,,,,,,,,,
,,,,,,,,,,,,,,,,telemetria_massa.json,2026-06-16 20:18:28.438741,SAT-BR-01,3822.0,C,2026-06-01T00:53:00Z,107.0,[],0xf4da567c,15.247,17.558,91.39,28.24,27.841,4.419,2.99,77.139,True,10.44,-8.742,-35.472,545.696,7.6174,97.6,166.963,-0.0226,-0.1942,0.413,0.00823,0.00622,0.00859,NOMINAL,961164.0,3.0,NOMINAL,520668.0,4.0,NOMINAL,1968383.0,0.0,NOMINAL,1923989.0,0.0,NOMINAL,808854.0,3.0,NOMINAL,684022.0,2.0,-103.857,8.38,7.86141e-06,57.0,0.0,Natal-GS,,,,,,,,,,,,,,,,,,,,
